"","Nombre","Altitud(msnm)","Superficie(km2)","Poblacion(hab)","Densidad_pob(hab/km2)","Latitud","Longitud","Pais"
"1","A Lama",478,111.76,2445,21.88,42.396854,-8.442307,"España"
"2","Mos",399,59,15078,255.56,42.2137733,-8.6312084,"España"
"3","O Porriño",109,61.2,19848,324.31,42.1618689,-8.6201899,"España"
"4","Ourense",138,85.2,105233,1235.13,42.336388888889,-7.8633333333333,"España"
"5","Ribadavia",95,25.1,5024,200.16,42.287777777778,-8.1425,"España"
"6","Soutomaior",239,24.99,7395,295.92,42.33863915,-8.57271862631,"España"
"7","Vigo",62,109.06,295364,2708.27,42.235833333333,-8.7266666666667,"España"
"8","Astorga",869,46.78,10867,232.3,42.4575,-6.0569444444444,"España"
"9","Betanzos",36,24.19,12959,535.72,43.2791691,-8.2106329,"España"
"10","Bilbao",6,41.6,346843,8337.57,43.262222222222,-2.9533333333333,"España"
"11","Bordeaux",11,49.36,254436,5154.7,44.837777777778,-0.57944444444444,"Francia"
"12","Burgos",859,107.08,175821,1641.96,42.340833333333,-3.6997222222222,"España"
"13","Castro-Urdiales",19,96.72,32069,331.57,43.384444444444,-3.215,"España"
"14","Collado Villalba",917,25.22,63679,2524.94,40.645277777778,-3.9913888888889,"España"
"15","Cáceres",457,1750.33,96126,54.92,39.473055555556,-6.3711111111111,"España"
"16","Ferrol",50,82.65,66065,799.33,43.466666666667,-8.25,"España"
"17","Fisterra",30,29.43,4708,159.97,42.908611111111,-9.2627777777778,"España"
"18","Gijón/Xixón",3,181.7,271780,1495.76,43.52931,-5.67732,"España"
"19","Huelva",24,151.33,143663,949.34,37.25,-6.95,"España"
"20","Las Rozas de Madrid",718,59.14,95814,1620.12,40.491666666667,-3.8733333333333,"España"
"21","León",837,39.03,124303,3184.81,42.598888888889,-5.5669444444444,"España"
"22","Logroño",384,79.55,151136,1899.89,42.47,-2.4455555555556,"España"
"23","Lugo",462,329.78,98276,298,43.011666666667,-7.5572222222222,"España"
"24","Madrid",657,604.45,3266126,5265.91,40.418888888889,-3.6919444444444,"España"
"25","Mérida",224,865.6,59335,68.55,38.915833333333,-6.3333333333333,"España"
"26","Nigrán",350,34.9,17675,506.45,42.1415954,-8.8066339,"España"
"27","O Barco de Valdeorras",325,86.1,13395,155.57,42.416666666667,-6.9830555555556,"España"
"28","Onzonilla",805,21.78,1835,84.25,42.524722222222,-5.5833333333333,"España"
"29","Oviedo",231,186.65,219686,1176.99,43.3625,-5.8502777777778,"España"
"30","Poio",91,33.93,17082,503.45,42.440833333333,-8.7013888888889,"España"
"31","Ponferrada",512,283.17,64674,228.39,42.546111111111,-6.5908333333333,"España"
"32","Pontevedra",16,118.22,83029,702.33,42.433611111111,-8.6475,"España"
"33","Porto",83,41.3,237591,5324,41.149472222222,-8.6107777777778,"Portugal"
"34","Pozuelo de Alarcón",690,43.2,86422,2000.51,40.440833333333,-3.8147222222222,"España"
"35","Salamanca",798,39.34,144228,3666.19,40.965,-5.6638888888889,"España"
"36","Santander",8,36.08,172539,4782.12,43.466666666667,-3.8,"España"
"37","Santiago de Compostela",260,220.01,97260,442.07,42.883333333333,-8.5333333333333,"España"
"38","Sarria",513,185.09,13330,72.02,42.777778,-7.414444,"España"
"39","Sevilla",11,140.8,688592,4890.57,37.383333333333,-5.9833333333333,"España"
"40","Tordesillas",704,141.95,8750,61.64,41.5008635,-5.0004844,"España"
"41","Valladolid",690,197.91,298412,1507.82,41.651980555556,-4.7285611111111,"España"
"42","Vilagarcía de Arousa",0,47.14,37456,794.57,42.5950581,-8.74306467245,"España"
"43","Viveiro",12,109.3,15466,141.5,43.648055555556,-7.59,"España"
"44","Ávila",1131,231.9,57744,249,40.654347222222,-4.6962222222222,"España"
"45","A Pobra do Caramiñal",0,32.51,9338,287.23,42.6,-8.9333333333333,"España"
"46","Padrón",13,48.37,8384,173.33,42.7390228,-8.6602504,"España"
"47","Tomiño",554,106.51,13499,126.74,41.9960729,-8.73140583572,"España"
"48","Tui",44,68.3,16701,244.52,42.048056,-8.644444,"España"
"49","Chaves",929,591.2,41243,0.07,41.739869,-7.470681,"Portugal"
"50","Cobreros",1010,77.7,579,7.45,42.075555555556,-6.7013888888889,"España"
"51","Guimarães",190,241.3,158124,651.12,41.445,-8.2908333333333,"Portugal"
"52","Vila Nova de Famalicão",112,201.6,133832,632,41.416667,-8.516667,"Portugal"
"53","Xinzo de Limia",621,132.67,9715,73.23,42.063611111111,-7.7238888888889,"España"
"54","Zamora",649,149.28,61406,411.35,41.503333333333,-5.7555555555556,"España"
"55","El Casar",833,51.84,12062,232.68,40.703333333333,-3.4263888888889,"España"
"56","Boiro",32,86.58,18838,217.58,42.65,-8.8833333333333,"España"
"57","Laredo",5,15.71,11025,701.78,43.414444444444,-3.41,"España"
"58","Navia",842,63.12,8509,132.76,43.53923,-6.7236021,"España"
"59","Ribadeo",571,106.2,9854,92.79,43.537222222222,-7.0430555555556,"España"
"60","Torrelavega",25,35.54,51494,1448.9,43.353055555556,-4.0458333333333,"España"
"61","A Coruña",21,37.83,245711,6495.14,43.366666666667,-8.3833333333333,"España"
"62","Ribas de Sil",240,67.78,947,13.97,42.42939165,-7.26457007183,"España"
"63","Almería",16,296.21,198533,670.24,36.833333333333,-2.45,"España"
"64","Donostia/San Sebastián",7,60.89,187415,3077.93,43.32,-1.98,"España"
"65","Irun",20,42.4,62401,1471.72,43.337806,-1.788806,"España"
"66","Ciudad Rodrigo",658,240.11,12344,51.41,40.596944444444,-6.5225,"España"
"67","El Bodón",793,60.74,270,4.45,40.487777777778,-6.5763888888889,"España"
"68","El Payo",934,61.87,338,5.46,40.2875,-6.7266666666667,"España"
"69","Villasrubias",849,39.5,271,6.86,40.338055555556,-6.6402777777778,"España"
"70","El Espinar",1191,205.1,8986,43.81,40.718611111111,-4.2477777777778,"España"
"71","Granadilla de Abona",640,162.45,50146,308.69,28.116667,-16.583333,"España"
"72","San Cristóbal de La Laguna",550,102.06,157503,1543.24,28.48,-16.32,"España"
"73","Santa Cruz de Tenerife",1,150.56,207312,1376.94,28.466666666667,-16.25,"España"
"74","Castielfabib",927,106.3,317,2.98,40.130378,-1.3041215,"España"
"75","Valencia/València",16,134.65,794288,5898.91,39.466666666667,-0.375,"España"
"76","Barcelona",13,101.35,5542680,15992.2,41.3825,2.1769444444444,"España"
"77","Baza",844,545,20412,37.45,37.4888637,-2.7709805,"España"
"78","El Ejido",80,227,83594,368.26,36.783055555556,-2.8166666666667,"España"
"79","Granada",684,88.02,232462,2641.01,37.178055555556,-3.6008333333333,"España"
"80","Guadix",913,317,18422,58.11,37.2995522,-3.1371246,"España"
"81","Motril",45,103.31,58020,561.61,36.745277777778,-3.5205555555556,"España"
"82","Roquetas de Mar",10,60,96800,1613.33,36.781388888889,-2.6147222222222,"España"
"83","Girona",69,39.14,101852,2602.25,41.983333333333,2.8166666666667,"España"
"84","la Jonquera",110,57.31,3290,57.41,42.419722222222,2.8752777777778,"España"
"85","l'Hospitalet de Llobregat",8,12.4,264923,21364.76,41.358888888889,2.0991666666667,"España"
"86","Allariz",571,85.96,6188,71.99,42.190083,-7.801795,"España"
"87","Aranda de Duero",805,127.28,32856,258.14,41.671388888889,-3.6863888888889,"España"
"88","Bembibre",644,63.42,8705,137.26,42.615398,-6.416971,"España"
"89","Cartes",40,19.02,5747,302.16,43.325555555556,-4.0680555555556,"España"
"90","Daimiel",627,438.3,17929,40.91,39.072196,-3.6143611,"España"
"91","Osorno la Mayor",8087,89.16,1205,13.52,42.41,-4.3613888888889,"España"
"92","Reinosa",855,4.12,9003,2185.19,43.001944444444,-4.1377777777778,"España"
"93","Sahagún",813,123.64,2493,20.16,42.371111111111,-5.0330555555556,"España"
"94","Fernán-Núñez",314,29.8,9663,324.26,37.669931,-4.7253088,"España"
"95","Jerez de la Frontera",56,1,212749,212749,36.7,-6.1166666666667,"España"
"96","Montemayor",413,57.98,3855,66.49,37.6486266,-4.6988689,"España"
"97","Montilla",371,169.29,22859,135.03,37.5865914,-4.6386198,"España"
"98","Utrera",49,651.24,50728,77.89,37.1824646,-5.7817506,"España"
"99","Écija",106,978.73,39873,40.74,37.541111111111,-5.0791666666667,"España"
"100","Carcassonne",111,65.08,47365,707.3,43.215833333333,2.3513888888889,"Francia"
"101","Lleida",162,211.7,429212,648.69,41.606831,0.633938,"España"
"102","Lloret de Mar",5,48.7,38373,787.95,41.7,2.833333,"España"
"103","Móstoles",660,45.28,209184,4619.79,40.333333333333,-3.8666666666667,"España"
"104","Ramonville-Saint-Agne",198,6.46,14725,2279.4,43.546111111111,1.4755555555556,"Francia"
"105","Roses",5,45.9,19550,425.93,42.263333,3.175,"España"
"106","Tarbes",304,15.33,42590,2708.28,43.232777777778,0.074444444444444,"Francia"
"107","Agullana",166,27,831,30.78,42.393783333333,2.8466777777778,"España"
"108","Badalona",12,20.95,220440,10522.2,41.433333333333,2.2333333333333,"España"
"109","Erla",425,18.96,342,18.04,42.1150034,-0.9476339,"España"
"110","Figueres",40,19.31,46654,2416.05,42.266666666667,2.95,"España"
"111","Gavet de la Conca",601,90.83,261,2.87,42.122928,0.921086,"España"
"112","Sant Joan de Mollet",54,3.28,507,154.57,42.046074,2.941929,"España"
"113","Zaragoza",208,973.78,674997,693.17,41.65,-0.88333333333333,"España"
"114","Coria",264,103.46,12478,120.61,39.981944444444,-6.5372222222222,"España"
"115","Guijo de Galisteo",427,62.28,1513,24.29,40.0936559,-6.4117208,"España"
"116","Hoyos",514,15,874,58.27,40.169166666667,-6.7213888888889,"España"
"117","Moraleja",261,124.54,6750,54.2,40.0695021,-6.6571584,"España"
"118","Navalmoral de la Mata",291,155.96,17129,109.83,39.892777777778,-5.5402777777778,"España"
"119","Plasencia",406,217.94,39913,183.14,40.0275,-6.0908333333333,"España"
"120","Constantina",555,481.31,947712,12.55,37.87757,5.62185,"España"
"121","San Nicolás del Puerto",590,44.94,596,13.26,37.993611111111,-5.6530555555556,"España"
"122","Alcaracejos",602,175.62,1486,8.46,38.3893241,-4.9673657,"España"
"123","Córdoba",106,1253,325701,259.94,37.883333333333,-4.7666666666667,"España"
"124","Almansa",7128,531.91,24419,45.91,38.8682065,-1.0978627,"España"
"125","Alcalá de Henares",588,87.99,195649,2223.54,40.481815,-3.364305,"España"
"126","Alcantarilla",62,16.24,42048,2589.16,37.972222222222,-1.2094444444444,"España"
"127","Alcaraz",962,370.53,1351,3.65,38.666025,-2.490463,"España"
"128","Alcobendas",669,45.27,117040,2585.38,40.533333333333,-3.6333333333333,"España"
"129","Alcoi",561,129.86,58994,454.29,38.698333333333,-0.47361111111111,"España"
"130","Alcázar de San Juan",644,666.78,30576,45.86,39.3901005,-3.2102351,"España"
"131","Alhama de Murcia",176,311.55,22077,70.86,37.851388888889,-1.4263888888889,"España"
"132","Alhambra",986,580.25,1022,1.74,38.89832,-3.053551,"España"
"133","Alicante/Alacant",5,201.27,334887,1663.87,38.345277777778,-0.48305555555556,"España"
"134","Aranjuez",495,201.11,59607,296.39,40.033333333333,-3.6027777777778,"España"
"135","Arganda del Rey",613,79.65,55389,695.4,40.299444444444,-3.4408333333333,"España"
"136","Badajoz",182,1440.37,150702,104.63,38.880277777778,-6.9752777777778,"España"
"137","Benidorm",15,38.51,68721,1784.5,38.534166666667,-0.13138888888889,"España"
"138","Calasparra",350,184.9,10178,55.05,38.231111111111,-1.6977777777778,"España"
"139","Caravaca de la Cruz",625,858.76,25760,30,38.1075,-1.86,"España"
"140","Carrizosa",824,26.04,1212,46.54,38.841666666667,-2.9927777777778,"España"
"141","Cartagena",67,558.08,214802,384.89,37.6,-0.98194444444444,"España"
"142","Castalla",675,114.6,10124,88.34,38.596666666667,-0.67083333333333,"España"
"143","Cieza",188,365.1,34988,95.83,38.2391225,-1.4189731,"España"
"144","Ciudad Real",625,284.98,74746,262.29,38.983333333333,-3.9166666666667,"España"
"145","Cuenca",997,911.06,54690,60.03,40.071666666667,-2.135,"España"
"146","Dénia",12,66.18,42166,637.14,38.840277777778,0.10861111111111,"España"
"147","Elche de la Sierra",670,239.49,3585,14.97,38.4483634,-2.0489954,"España"
"148","Elche/Elx",86,326.07,232517,713.09,38.266944444444,-0.69833333333333,"España"
"149","Elda",395,45.79,52618,1149.12,38.473055555556,-0.7975,"España"
"150","Gandia",22,60.8,74562,1226.35,38.966666666667,-0.18222222222222,"España"
"151","Garrucha",13,7.68,9212,1199.48,37.183055555556,-1.8166666666667,"España"
"152","Getafe",622,78.38,183374,2339.55,40.3,-3.7166666666667,"España"
"153","Hellín",552,781.2,30268,0.04,38.50957,-1.698922,"España"
"154","Honrubia",821,110.34,1566,14.19,39.6125,-2.2847222222222,"España"
"155","Huércal-Overa",280,318,19127,60.15,37.3898957,-1.9434961,"España"
"156","La Gineta",688,136.75,2512,18.37,39.1152257,-1.9962065,"España"
"157","La Roda",716,398.79,15476,38.81,39.206959,-2.16038,"España"
"158","Las Pedroñeras",745,224.67,6638,29.55,39.447725,-2.671775,"España"
"159","Lisboa",2,100.05,2203503,5474.59,38.716666666667,-9.1666666666667,"Portugal"
"160","Lorca",353,1675.21,94404,56.35,37.683333333333,-1.7,"España"
"161","Madridejos",697,262.01,10453,39.9,39.465833333333,-3.5297222222222,"España"
"162","Mojácar",152,72,6403,88.93,37.1405966,-1.8506325,"España"
"163","Montiel",900,271.29,1315,4.85,38.696388888889,-2.8622222222222,"España"
"164","Murcia",42,881.86,453258,513.98,37.986111111111,-1.1302777777778,"España"
"165","Orihuela",236,384,77414,201.6,38.085555555556,-0.94694444444444,"España"
"166","Ossa de Montiel",901,243.5,2307,9.47,38.9624133,-2.745302,"España"
"167","Pamplona/Iruña",450,25.14,201653,8021.2,42.816666666667,-1.65,"España"
"168","Pinto",605,62.7,52526,837.74,40.241111111111,-3.6994444444444,"España"
"169","Rojales",8,27.6,16963,614.6,38.088611111111,-0.72361111111111,"España"
"170","Sabiñánigo",780,586.82,9238,15.74,42.5185826,-0.3643361,"España"
"171","San Clemente",722,277.51,6988,25.18,39.403888888889,-2.4294444444444,"España"
"172","San Javier",4,74.2,32489,437.86,37.8036595,-0.8342849,"España"
"173","San Vicente del Raspeig/Sant Vicent del Raspeig",109,40.55,58385,1439.83,38.396388888889,-0.52527777777778,"España"
"174","Santa Pola",6,58.6,32306,551.3,38.189722222222,-0.55555555555556,"España"
"175","Tarancón",818,106,15271,144.07,40.0086075,-3.0102243,"España"
"176","Tarazona de la Mancha",714,212.58,6235,29.33,39.265,-1.9127777777778,"España"
"177","Tobarra",661,324.96,7684,23.65,38.583055555556,-1.6830555555556,"España"
"178","Toledo",516,232.1,84873,365.67,39.866666666667,-4.0333333333333,"España"
"179","Tomelloso",663,241.82,35873,148.35,39.157777777778,-3.0208333333333,"España"
"180","Valdemoro",615,64.2,75983,1183.54,40.190833333333,-3.6741666666667,"España"
"181","Valdepeñas",705,487.65,30077,61.68,38.766389,-3.399722,"España"
"182","Vera",97,58.11,16452,283.12,37.2475,-1.8677777777778,"España"
"183","Villahermosa",956,363.01,1826,5.03,38.7490351,-2.8715682,"España"
"184","Villanueva de los Infantes",880,135.06,4935,36.54,38.734166666667,-3.0166666666667,"España"
"185","Villarrobledo",724,862.41,25184,29.2,39.266666666667,-2.6,"España"
"186","Villena",505,345.6,33964,98.28,38.635,-0.86583333333333,"España"
"187","Vélez-Rubio",847,282.05,6555,23.24,37.6489587,-2.0764057,"España"
"188","Yeste",877,511.22,2657,5.2,38.351666666667,-2.3261111111111,"España"
"189","el Campello",26,55.27,28349,512.92,38.4275,-0.40111111111111,"España"
"190","Águilas",21,251.77,35301,140.21,37.404166666667,-1.5819444444444,"España"
"191","Teruel",915,440.41,35890,81.49,40.343611111111,-1.1072222222222,"España"
"192","Antas",108,100,3182,31.82,37.2452206,-1.9181629,"España"
"193","Olula del Río",488,23,6210,270,37.3552688,-2.2965931,"España"
"194","Baeza",769,194.3,15841,81.53,37.983333333333,-3.4666666666667,"España"
"195","Jaén",570,424.3,112999,266.32,37.769722222222,-3.7888888888889,"España"
"196","Peníscola / Peñíscola",46,78.97,7612,96.39,40.34932395,0.361170020509,"España"
"197","Toulouse",141,118.3,484809,4080.63,43.604444444444,1.4438888888889,"Francia"
"198","Antequera",575,749.34,41239,55.03,37.0183652,-4.5596649,"España"
"199","Arahal",117,201.1,19565,97.29,37.2625,-5.5452777777778,"España"
"200","Estepa",535,189.97,12505,65.83,37.291666666667,-4.8791666666667,"España"
"201","La Puebla de Cazalla",177,189.81,10979,57.84,37.223055555556,-5.3105555555556,"España"
"202","Loja",485,447.53,20342,45.45,37.166666666667,-4.15,"España"
"203","Osuna",322,592.49,17560,29.64,37.237222222222,-5.1030555555556,"España"
"204","Úbeda",768,403.98,34602,85.98,38.014146,-3.372386,"España"
"205","Albacete",681,1125.91,173329,153.95,38.995555555556,-1.8558333333333,"España"
"206","Almendralejo",337,164.5,33474,203.49,38.683055555556,-6.4091666666667,"España"
"207","Benavente",727,45.12,17935,397.5,42.0048668,-5.6756156,"España"
"208","Calatayud",536,154.25,20024,129.82,41.35,-1.633333,"España"
"209","Fraga",118,437.64,15033,34.35,41.5206796,0.3516343,"España"
"210","Guadalajara",685,235,85871,365.41,40.633333333333,-3.1666666666667,"España"
"211","Medinaceli",1204,205.37,713,3.47,41.172222222222,-2.4352777777778,"España"
"212","Molina de Aragón",1065,168.33,3275,19.46,40.843888888889,-1.8886111111111,"España"
"213","Oropesa del Mar/Orpesa",33,26.4,9076,343.79,40.092222222222,0.13388888888889,"España"
"214","Pedrafita do Cebreiro",1098,105.1,1001,9.52,42.7266132,-7.0216754,"España"
"215","Vila-real",42,55.12,50893,923.31,39.937777777778,-0.10138888888889,"España"
"216","Castellar de la Frontera",47,180.28,3049,16.91,36.30679815,-5.44757136523,"España"
"217","Cádiz",13,12.3,116027,9433.09,36.516666666667,-6.2833333333333,"España"
"218","Los Barrios",23,331.33,23642,71.35,36.183430555556,-5.4928097222222,"España"
"219","Medina-Sidonia",400,487.15,11708,24.03,36.4576714,-5.9272725,"España"
"220","Puerto Real",3,195.96,41627,212.43,36.529166666667,-6.1919444444444,"España"
"221","Manzanares",654,474.22,17997,37.95,38.996058333333,-3.3723666666667,"España"
"222","Málaga",8,398.25,574654,1442.95,36.716666666667,-4.4166666666667,"España"
"223","Paterna",70,35.85,70195,1958.02,39.502777777778,-0.44055555555556,"España"
"224","San Fernando",25,30.66,94979,3097.81,36.4666072,-6.2009666,"España"
"225","Tortosa",14,218.45,33372,152.77,40.8125,0.52111111111111,"España"
"226","Ulldecona",133,126.9,6300,49.65,40.59805,0.44816,"España"
"227","Valderrobres",508,124.04,2425,19.55,40.883333333333,0.15,"España"
"228","Alosno",183,191.07,3923,20.53,37.5496719,-7.115795,"España"
"229","Castillo de Locubín",706,104,4058,39.02,37.5279563,-3.9422486,"España"
"230","Gibraleón",26,328,12607,38.44,37.3751414,-6.969363,"España"
"231","Lucena",485,351.09,42605,121.35,37.4091334,-4.4860128,"España"
"232","Azaila",276,81.44,90,1.11,41.2912333,-0.4942811,"España"
"233","Calanda",466,112.25,3748,33.39,40.9394642,-0.2315612,"España"
"234","Híjar",291,165.4,1721,10.41,41.1747377,-0.4515985,"España"
"235","Quinto",163,118.4,1948,0.02,41.424913,-0.497017,"España"
"236","Sigüenza",1017,386.87,4356,11.62,41.07114,-2.643477,"España"
"237","Angoulême",330,4.27,549,128.57,45.649444444444,0.15944444444444,"Francia"
"238","As Pontes de García Rodríguez",354,249.4,10237,0.04,43.450909,-7.849035,"España"
"239","Bayonne",4,21.68,63024,2362.92,43.4925,-1.4763888888889,"Francia"
"240","San Sebastián de los Reyes",672,59.26,89276,1506.51,40.546944444444,-3.6258333333333,"España"
"241","Vitoria-Gasteiz",539,276.08,251774,911.96,42.846666666667,-2.6730555555556,"España"
"242","Albaida",315,35.41,5900,166.62,38.836944444444,-0.51555555555556,"España"
"243","Algemesí",17,41.5,27331,658.58,39.189722222222,-0.43777777777778,"España"
"244","Cocentaina",430,52.94,11511,217.43,38.745,-0.44055555555556,"España"
"245","Crevillent",129,103.3,28952,280.27,38.248611111111,-0.80888888888889,"España"
"246","Enguera",320,241.75,4752,19.66,38.9802279,-0.6891945,"España"
"247","Hondarribia",16,28.63,16828,587.78,43.3624372,-1.7914777,"España"
"248","Ibi",755,62.52,23489,375.7,38.627222222222,-0.57527777777778,"España"
"249","Petrer",462,104.26,34276,328.76,38.483333333333,-0.76666666666667,"España"
"250","Sabadell",150270,37.53,213644,5692.62,41.548333333333,2.1075,"España"
"251","Sagunto/Sagunt",49,132,66140,501.06,39.676388888889,-0.27333333333333,"España"
"252","Sax",472,63.5,9845,155.04,38.539444444444,-0.81611111111111,"España"
"253","Torrent",46,69.32,82208,1185.92,39.4365348,-0.4679001,"España"
"254","Monreal del Campo",939,89.05,2434,27.33,40.7894628,-1.3535011,"España"
"255","Cenes de la Vega",741,6.49,8002,1232.97,37.159444444444,-3.5386111111111,"España"
"256","Navalcarnero",670,100.2,29298,292.4,40.284722222222,-4.0136111111111,"España"
"257","Talavera de la Reina",371,185.83,83417,448.89,39.966666666667,-4.8333333333333,"España"
"258","Castellote",774,235.18,681,2.9,40.7996276,-0.3197027,"España"
"259","Argamasilla de Alba",671,396.02,6838,17.27,39.129166666667,-3.0888888888889,"España"
"260","Campo de Criptana",707,302.41,13414,44.36,39.406666666667,-3.125,"España"
"261","Herencia",643,226.74,8390,37,39.366944444444,-3.355,"España"
"262","Illescas",583,57.35,28894,503.82,40.122777777778,-3.8455555555556,"España"
"263","Leganés",666,43.25,189861,4389.85,40.32825,-3.7654027777778,"España"
"264","Puertollano",708,226.74,47035,207.44,38.6852167,-4.111178,"España"
"265","Bourges",153,68.74,66589,939.06,47.083611111111,2.3955555555556,"Francia"
"266","Béziers",17,95.48,78453,808.31,43.343333333333,3.2161111111111,"Francia"
"267","Clermont-Ferrand",358,42.67,146632,3372.06,45.779722222222,3.0869444444444,"Francia"
"268","Issoire",386,19.69,15226,752.77,45.544166666667,3.2488888888889,"Francia"
"269","Perpignan",30,68.07,120158,1765.21,42.6975,2.8947222222222,"Francia"
"270","Sestao",48,3.5,27296,7798.86,43.310833333333,-3.0055555555556,"España"
"271","Balaguer",233,57.32,17162,299.41,41.790401,0.805573,"España"
"272","Vallfogona de Balaguer",235,27.12,1876,69.17,41.753888888889,0.81555555555556,"España"
"273","Algeciras",20,85.9,121957,1419.76,36.1275,-5.4538888888889,"España"
"274","Alhendín",739,50.81,9349,184,37.107777777778,-3.6458333333333,"España"
"275","Arriate",603,8.27,4102,496.01,36.7991421,-5.1407457,"España"
"276","Chiclana de la Frontera",11,205.45,85556,416.43,36.416666666667,-6.15,"España"
"277","Don Benito",280,561.99,37151,66.11,38.95,-5.85,"España"
"278","El Puerto de Santa María",0,159.34,88405,554.82,36.601468,-6.2381494,"España"
"279","Estepona",18,137.5,68286,496.63,36.433055555556,-5.1330555555556,"España"
"280","La Línea de la Concepción",3,19.24,63147,3282.07,36.161111111111,-5.3486111111111,"España"
"281","Madrigalejo",294,100.81,1751,17.37,39.1369301,-5.6265772,"España"
"282","Mairena del Alcor",135,69.72,23550,337.78,37.373055555556,-5.7475,"España"
"283","Manilva",128,35.58,15528,436.42,36.3763823,-5.2503659,"España"
"284","Marbella",27,116.82,143386,1227.41,36.511363888889,-4.8834416666667,"España"
"285","Montpellier",27,56.88,288600,5012.67,43.610919444444,3.8772305555556,"Francia"
"286","Narbonne",285,172.96,54700,306,43.184722222222,3.0036111111111,"Francia"
"287","Nerja",26,85,21091,248.13,36.7468571,-3.8790195,"España"
"288","Ronda",740,397.62,33877,85.2,36.737222222222,-5.1647222222222,"España"
"289","Rota",9,84.01,29109,346.49,36.6228636,-6.3599595,"España"
"290","San Roque",109,140,31218,222.99,36.209722222222,-5.3844444444444,"España"
"291","Setenil de las Bodegas",640,82.15,2769,33.71,36.864166666667,-5.1813888888889,"España"
"292","Tarifa",7,419.67,18162,43.28,36.015305555556,-5.6056666666667,"España"
"293","Villanueva de la Serena",300,152,25667,168.86,38.973888888889,-5.8002777777778,"España"
"294","l'Alcúdia",15,60.05,20241,337.07,39.852222222222,3.1219444444444,"España"
"295","Torre Pacheco",40,189.4,35676,188.36,37.743133,-0.9539015,"España"
"296","Archena",102,16.4,19301,1176.89,38.115,-1.2991666666667,"España"
"297","Bossòst",712,28.17,1109,39.37,42.7875,0.69361111111111,"España"
"298","Calp",59,23.51,22725,966.61,38.645,0.044166666666667,"España"
"299","Castellón de la Plana / Castelló de la Plana",27,107.5,171728,1597.47,39.97,-0.05,"España"
"300","Cazères",457,1750.33,96126,54.92,39.473055555556,-6.3711111111111,"Francia"
"301","Constantí",87,30.94,6540,211.38,41.153175,1.21433,"España"
"302","Eivissa",99,11.14,49783,4468.85,38.908888888889,1.4327777777778,"España"
"303","Estancarbon",483,161.04,53132,329.93,42.1401,-0.40889722222222,"Francia"
"304","Gourdan-Polignan",523,5.26,1389,264.1,43.077777777778,0.57722222222222,"Francia"
"305","Huesca",483,161.04,53132,329.93,42.1401,-0.40889722222222,"España"
"306","Jaca",818,406.35,12988,31.96,42.55,-0.55,"España"
"307","Jijona/Xixona",453,163.76,6865,41.92,38.539166666667,-0.50805555555556,"España"
"308","Llíria",164,228,23253,101.99,39.6258293,-0.5961102,"España"
"309","Manises",52,19.65,30919,1573.49,39.483333333333,-0.45,"España"
"310","Marines",215,35.72,1828,0.05,39.67497,-0.562426,"Francia"
"311","Marseille",12,240.62,855393,3554.95,43.296666666667,5.3763888888889,"Francia"
"312","Molina de Segura",125,169.5,71890,424.13,38.054766666667,-1.2131111111111,"España"
"313","Moncada",37,15.6,21935,1406.09,39.533333333333,-0.38333333333333,"España"
"314","Montauban",87,135.17,62290,449.88,44.017222222222,1.355,"Francia"
"315","Novelda",250,75.7,25651,338.85,38.386111111111,-0.76527777777778,"España"
"316","Picanya",15,7.1,11513,1621.55,39.4355947,-0.4359054,"España"
"317","Puente Genil",216,171.05,30048,175.67,37.3886368,-4.7698498,"España"
"318","Silla",8,25,18771,750.84,39.3617839,-0.4103493,"España"
"319","Tarragona",69,63,134515,2135.16,41.11868,1.24532,"España"
"320","Torrevieja",7,71.44,83337,1166.53,37.977777777778,-0.68333333333333,"España"
"321","Valence",16,134.65,794288,5898.91,39.466666666667,-0.375,"Francia"
"322","Yecla",602,607.7,34432,56.66,38.616667,-1.116667,"España"
"323","Zarautz",4,14.8,23323,1575.88,43.2863159,-2.1748013,"España"
"324","Torremolinos",49,20,68661,3433.05,36.624537,-4.4996349,"España"
"325","Maia",31,83.7,130254,1616.56,41.233333,-8.616667,"Portugal"
"326","O Pereiro de Aguiar",321,60.89,6275,103.05,42.3463433,-7.8002637,"España"
"327","Alcorcón",718,33.73,170514,5055.26,40.3493217,-3.8284487,"España"
"328","Azuaga",593,497.9,7853,15.77,38.258888888889,-5.6777777777778,"España"
"329","Biescas",860,189.09,1463,7.74,42.628333333333,-0.32111111111111,"España"
"330","Espiel",548,437.26,2397,5.48,38.1877196,-5.0204062,"España"
"331","Fuente de Cantos",582,251.8,4721,18.75,38.246666666667,-6.3091666666667,"España"
"332","Los Santos de Maimona",529,108,8091,74.92,38.448888888889,-6.3838888888889,"España"
"333","Monesterio",765,322,4226,13.12,38.0875,-6.2744444444444,"España"
"334","Peñarroya-Pueblonuevo",537,64.88,10695,164.84,38.3026178,-5.2714828,"España"
"335","Santa Olalla del Cala",535,204,2001,9.81,37.9066642,-6.2293168,"España"
"336","Santiponce",18,8.42,8554,1015.91,37.438611111111,-6.0383333333333,"España"
"337","Torla-Ordesa",1032,169.2,304,1.8,42.627777777778,-0.11222222222222,"España"
"338","Trujillo",564,649.53,9012,13.87,39.465277777778,-5.8788888888889,"España"
"339","Usagre",566,240,1763,7.35,38.357222222222,-6.1641666666667,"España"
"340","Villafranca de los Barros",410,104.4,12835,122.94,38.5613358,-6.3392419,"España"
"341","Zafra",508,62.6,16797,268.32,38.4258642,-6.4162027,"España"
"342","Albolote",650,78.58,18808,239.35,37.230555555556,-3.6572222222222,"España"
"343","Albox",420,168.42,11805,70.09,37.383333333333,-2.1333333333333,"España"
"344","Alhaurín de la Torre",104,82.7,40345,487.85,36.661838,-4.5649934,"España"
"345","Almuñécar",14,83.36,26514,318.07,36.733888888889,-3.6911111111111,"España"
"346","Bailén",343,117.6,17667,150.23,38.096787,-3.7765601,"España"
"347","Benahadux",113,16,4382,273.88,36.9251533,-2.460209,"España"
"348","Cuevas del Almanzora",88,263,14081,53.54,37.296944444444,-1.8797222222222,"España"
"349","Fines",456,23.08,2079,89.04,60.17556,24.93417,"España"
"350","Fuengirola",6,10,80309,8030.9,36.541666666667,-4.625,"España"
"351","Jumilla",510,972,25600,26.34,38.479166666667,-1.325,"España"
"352","La Carolina",604,201,15261,75.93,38.2742478,-3.6152701,"España"
"353","Laguna de Duero",701,29.23,22725,777.45,41.583055555556,-4.7166666666667,"España"
"354","Linares",419,197.5,57414,290.7,38.1,-3.633333,"España"
"355","María",2729,225.62,1238,5.71,37.7,-2.15,"España"
"356","Níjar",356,599.77,30663,51.12,36.965555555556,-2.2063888888889,"España"
"357","Puerto Lumbreras",465,144,15394,106.9,37.5634527,-1.8072123,"España"
"358","Segovia",1002,163.59,51674,315.88,40.95,-4.1166666666667,"España"
"359","Totana",257,288.93,32008,110.78,37.7710024,-1.5001618,"España"
"360","Tudela",264,215.7,36258,168.09,42.065277777778,-1.6066666666667,"España"
"361","Turre",53,108,3549,32.86,37.1523701,-1.8945374,"España"
"362","Villanueva del Arzobispo",688,177.38,8193,46.19,38.168886,-3.007771,"España"
"363","Vélez-Blanco",1070,441.31,1904,4.31,37.6925421,-2.0952955,"España"
"364","Vélez-Málaga",60,157,81643,520.02,36.7821366,-4.0992542,"España"
"365","Vícar",378,64.1,25405,0.4,36.831442,-2.641882,"España"
"366","Miajadas",297,120.75,9607,79.56,39.152777777778,-5.9080555555556,"España"
"367","Zalamea de la Serena",483,245.8,3555,14.46,38.649722222222,-5.6569444444444,"España"
"368","Almonte",75,859.21,24191,28.15,37.2611686,-6.5175751,"España"
"369","Bollullos Par del Condado",131,50,14272,285.44,37.339722222222,-6.5372222222222,"España"
"370","Mengíbar",323,62.34,9941,159.46,37.968333333333,-3.8088888888889,"España"
"371","Viso del Marqués",785,533.2,2298,4.31,38.5217338,-3.5627159,"España"
"372","Aldaia",50,16.1,31864,1979.13,39.4647207,-0.460781,"España"
"373","Benissa",254,69.71,11005,157.87,38.715277777778,0.05,"España"
"374","Nice",10,71.92,342979,4727.71,43.701944444444,7.2683333333333,"Francia"
"375","la Vila Joiosa",32,38.5,34673,900.6,38.505277777778,-0.23277777777778,"España"
"376","Miranda de Ebro",471,101.33,35522,350.56,42.683333333333,-2.9333333333333,"España"
"377","Palencia",749,94.95,78412,825.82,42.016666666667,-4.5333333333333,"España"
"378","Bicorp",292,136.5,533,3.9,39.131944444444,-0.78777777777778,"España"
"379","Chella",219,43.5,2435,55.98,39.044444444444,-0.66055555555556,"España"
"380","Llanera de Ranes",140,9.3,1055,113.44,38.9916644,-0.5713389,"España"
"381","Navarrés",275,47,2968,63.15,39.101388888889,-0.69333333333333,"España"
"382","Cambrils",24,35.08,33898,966.31,41.06699,1.05645,"España"
"383","Reus",125,53.05,104373,1967.45,41.15487,1.10871,"España"
"384","Vilafranca del Penedès",215,19.65,39746,2022.7,41.344722222222,1.6994444444444,"España"
"385","el Vendrell",55,36.82,37606,1021.35,41.220077,1.534846,"España"
"386","l'Ametlla de Mar",19,66.87,6787,101.5,40.8838957,0.8024645,"España"
"387","Alcorisa",632,121.2,3266,26.95,40.8921754,-0.381274,"España"
"388","Aracena",714,184,8107,44.06,37.891111111111,-6.5611111111111,"España"
"389","Arjonilla",348,42.4,3575,84.32,37.9742192,-4.1073875,"España"
"390","El Garrobo",275,45.05,790,17.54,37.6244685,-6.1711347,"España"
"391","La Campana",136,126.09,5399,42.8,37.5695,-5.42577,"España"
"392","Lora del Río",38,293.69,18662,63.54,37.657222222222,-5.5266666666667,"España"
"393","Moguer",49,203,22088,108.81,37.274722222222,-6.8386111111111,"España"
"394","Montoro",195,586.12,9364,15.98,38.0216741,-4.382812,"España"
"395","Pedrera",460,60.64,5194,85.65,37.223055555556,-4.8966666666667,"España"
"396","Bellpuig",308,35,5133,146.66,41.626666666667,1.0133333333333,"España"
"397","Vila-sana",249,19.1,742,38.85,41.664166666667,0.93,"España"
"398","Aguilar de la Frontera",280,166.48,13328,80.06,37.516666666667,-4.65,"España"
"399","Alcalá de Guadaíra",46,284.61,75279,264.5,37.333333333333,-5.85,"España"
"400","Archidona",666,185.59,8238,44.39,37.0954031,-4.390629,"España"
"401","Arcos de la Frontera",185,526.81,30700,58.28,36.7482937,-5.8063128,"España"
"402","Ardales",445,106.51,2500,23.47,36.877777777778,-4.8447222222222,"España"
"403","Benalmádena",280,27.2,68128,2504.71,36.5968975,-4.55350231173,"España"
"404","Cabra",458,228,20341,89.21,37.4718153,-4.4335616,"España"
"405","Campillos",461,187.84,8444,44.95,37.0475793,-4.8626422,"España"
"406","Fuente de Piedra",459,91,2596,28.53,37.135283,-4.7276315,"España"
"407","Humilladero",454,34.66,3286,94.81,37.1145904,-4.7028106,"España"
"408","Isla Cristina",3,50.5,21264,421.07,37.199444444444,-7.3252777777778,"España"
"409","La Roda de Andalucía",405,76.68,4183,54.55,37.200833333333,-4.7791666666667,"España"
"410","Mijas",428,148.8,82742,556.06,36.595555555556,-4.6372222222222,"España"
"411","Mollina",473,75,5149,68.65,37.1231023,-4.6560487,"España"
"412","Olvera",643,193.57,8113,41.91,36.9346499,-5.2599069,"España"
"413","Ajalvir",681,19.62,4712,240.16,40.534166666667,-3.4808333333333,"España"
"414","Fuenteheridos",712,10.92,678,62.09,37.9034873,-6.6617402,"España"
"415","Higuera de la Sierra",620,24,1287,53.62,37.8365154,-6.4478855,"España"
"416","Marinaleda",205,24.82,2627,105.84,37.371111111111,-4.9580555555556,"España"
"417","Aguilar de Campoo",892,236.56,6744,28.51,42.7925,-4.2602777777778,"España"
"418","Bañares",595,29.59,241,8.14,42.469444444444,-2.9102777777778,"España"
"419","Buitrago del Lozoya",975,26.5,1884,71.09,40.991944444444,-3.6388888888889,"España"
"420","Burgo de Osma-Ciudad de Osma",893,289.35,4940,17.07,41.586666666667,-3.0672222222222,"España"
"421","Castrillo de la Vega",810,26.4,621,23.52,41.650555555556,-3.7813888888889,"España"
"422","Lerma",849,166.4,2529,15.2,42.026388888889,-3.7555555555556,"España"
"423","Nava de Roa",794,22.41,227,10.13,41.613611111111,-3.965,"España"
"424","Nájera",491,37.44,8045,214.88,42.415833333333,-2.7341666666667,"España"
"425","Peñafiel",754,76.11,5037,66.18,41.5975136,-4.1227931,"España"
"426","Soria",1061,271.77,39398,144.97,41.766666666667,-2.4666666666667,"España"
"427","Torrejón de Ardoz",586,32.49,131376,4043.58,40.45,-3.4830555555556,"España"
"428","Arenas de San Juan",650,63.09,1011,16.02,39.2175,-3.5030555555556,"España"
"429","Berriozar",429,2.71,10426,3847.23,42.836111111111,-1.6713888888889,"España"
"430","Ocaña",730,147.9,11597,78.41,39.956944444444,-3.4966666666667,"España"
"431","Puerto Lápice",1500,54.85,924,16.85,39.324444444444,-3.4811111111111,"España"
"432","Quintanar de la Orden",695,87.87,11030,125.53,39.595833333333,-3.0469444444444,"España"
"433","Tembleque",637,223.07,1986,8.9,39.694722222222,-3.5041666666667,"España"
"434","Torralba de Calatrava",620,101.58,2977,29.31,39.016388888889,-3.75,"España"
"435","El Bosque",285,30.75,2145,69.76,36.757294,-5.5067224,"España"
"436","Ubrique",337,69.75,16597,237.95,36.6797472,-5.4451945,"España"
"437","Villamartín",167,210.3,12150,57.77,36.8591822,-5.6434544,"España"
"438","el Verger",25,8.16,4640,568.63,38.842777777778,-0.0094444444444444,"España"
"439","Avilés",8,26.81,78182,2916.15,43.556111111111,-5.9222222222222,"España"
"440","Mieres",2064,146.03,37959,259.94,43.25,-5.7766666666667,"España"
"441","Mataró",26,22,128265,5830.23,41.533333333333,2.45,"España"
"442","Premià de Dalt",142,6.5,10448,1607.38,41.508055555556,2.3458333333333,"España"
"443","Premià de Mar",8,1.96,28119,14346.43,41.4920085,2.3620172,"España"
"444","Vilassar de Dalt",135,9.01,9043,1003.66,41.5163595,2.3592879,"España"
"445","Vilassar de Mar",10,4.01,20837,5196.26,41.505277777778,2.3927777777778,"España"
"446","Cedeira",137,85.42,6640,77.73,43.65,-8.05,"España"
"447","Narón",4814,66.91,39115,0.58,37.21201,70.56661,"España"
"448","Rivas-Vaciamadrid",563,67.38,88150,1308.25,40.339444444444,-3.5180555555556,"España"
"449","Banyoles",172,11.1,19826,1786.13,42.119444444444,2.7663888888889,"España"
"450","Calella",5,8.01,19069,2380.65,41.616944444444,2.6641666666667,"España"
"451","Sant Sadurní d'Anoia",162,18.97,12887,679.34,41.426111111111,1.785,"España"
"452","Manresa",250,41.66,77714,1865.43,41.726388888889,1.8291666666667,"España"
"453","Cortegana",689,174,4666,26.82,37.9093023,-6.8196169,"España"
"454","Galaroza",568,22.27,1379,61.92,37.927777777778,-6.7083333333333,"España"
"455","San Miguel de Abona",580,42.04,20886,496.81,28.0975,-16.617222,"España"
"456","Villafranca del Bierzo",500,177,2899,16.38,42.6075,-6.8075,"España"
"457","La Puerta de Segura",585,98,2268,23.14,38.349681,-2.736619,"España"
"458","Agramunt",337,79.7,5371,67.39,41.786289,1.096388,"España"
"459","Arévalo",820,45.71,7986,174.71,41.066666666667,-4.7166666666667,"España"
"460","Camponaraya",489,29.13,4096,140.61,42.580555555556,-6.6702777777778,"España"
"461","La Bañeza",772,19.71,10338,524.51,42.2975,-5.9016666666667,"España"
"462","Lena",306,315.51,10890,34.52,43.0830515,-5.79222323497,"España"
"463","Medina del Campo",720,153.27,20510,133.82,41.3085254,-4.9150523,"España"
"464","Monforte de Lemos",360,199.52,18433,92.39,42.516388888889,-7.5161111111111,"España"
"465","Rueda",724,90.5,1254,13.86,41.413888888889,-4.9597222222222,"España"
"466","Vilalba",917,25.22,63679,2524.94,40.645277777778,-3.9913888888889,"España"
"467","Estella/Lizarra",421,15.39,13810,897.34,42.666666666667,-2.0166666666667,"España"
"468","Carbajosa de la Sagrada",789,13.71,7116,519.04,40.933055555556,-5.6513888888889,"España"
"469","Castell-Platja d'Aro",4,21.68,10860,500.92,41.819166666667,3.0683333333333,"España"
"470","Burela",25,7.78,9588,1232.39,43.6604617,-7.3582092,"España"
"471","Castilfalé",819,25.9,69,2.66,42.219444444444,-5.4222222222222,"España"
"472","Salou",5,15.1,27476,1819.6,41.07964,1.13163,"España"
"473","Faro",10,202.6,411468,289,37.016666666667,-7.9333333333333,"Portugal"
"474","Alcañiz",381,472.12,15947,33.78,41.050254,-0.1329565,"España"
"475","Azpeitia",80,69.39,14936,215.25,43.181944444444,-2.2652777777778,"España"
"476","Azkoitia",113,54.71,11633,212.63,43.179167,-2.310556,"España"
"477","Berlanga",936,220.18,856,3.89,41.465,-2.8611111111111,"España"
"478","Alanís",705,280.2,1746,0.01,38.03957,-5.709928,"España"
"479","Alcaudete",676,236.81,10498,44.33,37.5881403,-4.0812937,"España"
"480","Aljezur",33,323.5,5322,16,37.317778,-8.8,"Portugal"
"481","Cabeza del Buey",550,475.06,4864,10.24,38.721111111111,-5.2194444444444,"España"
"482","Castuera",512,432,5880,13.61,38.7229615,-5.5443352,"España"
"483","Coimbra",43,31.3,437642,427.08,40.211141,-8.429072,"Portugal"
"484","El Ronquillo",352,76.52,1364,17.83,37.725555555556,-6.1769444444444,"España"
"485","Elvas",340,631.04,22691,35.9,38.8909,-7.177,"Portugal"
"486","Guadalcanal",762,274.97,2706,9.67,38.092,-5.82117,"España"
"487","Guadalupe",640,68.2,1862,27.3,39.45,-5.3166666666667,"España"
"488","La Roca de la Sierra",248,109.6,1464,13.36,39.109108,-6.6901838,"España"
"489","Llerena",641,162,5804,35.83,38.2375,-6.0152777777778,"España"
"490","Puebla de Obando",378,23.6,1836,77.8,39.1776392,-6.6286402,"España"
"491","Villares de la Reina",818,21.81,6351,291.2,41.002777777778,-5.6333333333333,"España"
"492","Évora",295,1307.08,56596,43.3,38.5725,-7.9072222222222,"Portugal"
"493","La Victoria",262,20,2271,113.55,37.6814763,-4.8531255,"España"
"494","Andújar",212,964.9,36793,38.13,38.0392362,-4.0505603,"España"
"495","Los Villares",541,88.63,6014,67.86,37.689166666667,-3.8183333333333,"España"
"496","Cadaqués",23,25.73,2712,105.4,42.288611111111,3.2777777777778,"España"
"497","Tàrrega",373,88,17098,194.3,41.646388888889,1.1394444444444,"España"
"498","Medina de Pomar",607,205.78,5728,27.84,42.927777777778,-3.4866666666667,"España"
"499","Oña",598,161.64,1017,6.29,42.734722222222,-3.4138888888889,"España"
"500","Trespaderne",555,36.81,783,21.27,42.802222222222,-3.39,"España"
"501","Villalba de Duero",815,13.75,699,50.84,41.682222222222,-3.745,"España"
"502","Bocairent",680,97,4195,43.25,38.765833333333,-0.61277777777778,"España"
"503","Ontinyent",353,125.43,35347,281.81,38.822222222222,-0.60722222222222,"España"
"504","Xàtiva",115,76.56,29231,381.81,38.9887291,-0.5191539,"España"
"505","l'Olleria",250,32.2,8281,257.17,38.914166666667,-0.54944444444444,"España"
"506","Salt",83,6.6,31362,4751.82,41.976111111111,2.7880555555556,"España"
"507","el Prat de Llobregat",8,31.4,64599,2057.29,41.3246333,2.0952568,"España"
"508","Balmaseda",147,22.8,7697,337.59,43.195833333333,-3.1927777777778,"España"
"509","Getxo",47,11.89,77946,6555.59,43.344166666667,-3.0063888888889,"España"
"510","Leioa",31,8.36,31795,3803.23,43.328888888889,-2.9847222222222,"España"
"511","Hamburg",6,755.3,1822000,2355,53.55,10,"Alemania"
"512","Monção",18,211.3,19230,91,42.073333,-8.48,"Portugal"
"513","Redondela",19,51.9,29194,566.32,42.281852,-8.60917,"España"
"514","Benabarre",792,157.14,1124,7.15,42.116667,0.483333,"España"
"515","Binéfar",286,25.1,9561,380.92,41.85,0.28333333333333,"España"
"516","Burriana / Borriana",13,47,34683,737.94,39.889444444444,-0.0925,"España"
"517","Vielha e Mijaran",974,211.41,5559,26.29,42.735,0.79527777777778,"España"
"518","Vinaròs",7,95.46,28682,300.46,40.466666666667,0.46666666666667,"España"
"519","Barbate",10,143.4,22518,157.03,36.1899697,-5.9200967,"España"
"520","Agde",5,50.81,29023,563.06,43.31,3.4752777777778,"Francia"
"521","Agen",48,11.49,34417,2922.19,44.203055555556,0.61861111111111,"Francia"
"522","Aia",270,55.27,2081,37.69,43.965571,8.092197,"España"
"523","Aix-en-Provence",173,186.08,145676,765.7,43.527777777778,5.4455555555556,"Francia"
"524","Albi",526,32.61,50759,23.95,43.928055555556,2.1458333333333,"Francia"
"525","Alcarràs",137,114.82,9514,82.86,41.56383,0.524069,"España"
"526","Alès",162,23.16,39535,1.71,52.973095,30.6855,"Francia"
"527","Amsterdam",14,219,281,4926,52.383333333333,4.9,"Paises Bajos"
"528","Anglesola",335,23.53,1363,57.93,41.658977,1.081367,"España"
"529","Annemasse",433,4.98,36105,7171.08,46.195,6.2355555555556,"Francia"
"530","Argelaguer",183,12.56,397,31.61,42.2145175,2.6414922,"España"
"531","Arles",10,758.93,53318,69.24,43.676944444444,4.6286111111111,"Francia"
"532","Arroyo del Ojanco",540,57.31,2288,39.92,38.320833333333,-2.8947222222222,"España"
"533","Balma",152,16.59,16878,998.67,43.610277777778,1.4986111111111,"Francia"
"534","Berga",704,22.56,16494,731.12,42.1,1.8455555555556,"España"
"535","Bonn",60,141,324899,2322,50.733888888889,7.0997222222222,"Alemania"
"536","Bourg-de-Péage",135,13.71,10205,744.35,45.037777777778,5.05,"Francia"
"537","Brescia",156,90,197008,2087,45.538888888889,10.220280555556,"Italia"
"538","Brest",34,49.51,790,140064,48.39,-4.4869444444444,"Francia"
"539","Brignoles",224,70.53,17532,243.57,43.405833333333,6.0616666666667,"Francia"
"540","Camprodon",988,103.4,2281,22.06,42.311803,2.364804,"España"
"541","Cannes",16,19.62,73868,3764.93,43.5525,7.0213888888889,"Francia"
"542","Carmona",253,924.12,28531,30.87,37.471111111111,-5.6422222222222,"España"
"543","Castelldefels",3,12.81,67004,5230.6,41.28,1.9766666666667,"España"
"544","Cenon",3,5.52,24975,4479.89,44.856944444444,-0.53277777777778,"Francia"
"545","Cerdanyola del Vallès",32,30.6,57403,1875.92,41.491944444444,2.1388888888889,"España"
"546","Cervera",548,55.2,9180,166.3,41.6657,1.271001,"España"
"547","Dornbirn",437,120.97,44867,397.35,47.416666666667,9.75,"Austria"
"548","Fondarella",243,5.4,784,145.19,41.636388888889,0.87472222222222,"España"
"549","Forbach",219,16.32,21858,1320.59,49.188055555556,6.9,"Francia"
"550","Freiburg im Breisgau",278,153.06,230241,1.435,47.994722222222,7.8497222222222,"Alemania"
"551","Fréjus",32,102.27,53512,515.03,43.433055555556,6.7355555555556,"Francia"
"552","Genève",403,15.93,200548,12.04,46.2,6.15,"Suiza"
"553","Granyanella",541,24.4,148,6.07,41.648705,1.22302,"España"
"554","Grenoble",215,18.13,160625,8739.88,45.186944444444,5.7263888888889,"Francia"
"555","Igualada",340,8.12,39967,4922.04,41.581388888889,1.6208333333333,"España"
"556","Karlsruhe",121,173.46,294761,1715,49.016666666667,8.4,"Alemania"
"557","Köln",37,405.15,1085664,2457,50.942222222222,6.9577777777778,"Alemania"
"558","La Rochelle",13,28.43,75735,2663.91,46.159444444444,-1.1513888888889,"Francia"
"559","Lausanne",590,41.37,138905,3357.63,46.533333333333,6.6333333333333,"Suiza"
"560","Le Grand-Saconnex",452,4.38,12033,2747.26,46.233333333333,6.1166666666667,"Suiza"
"561","Lisle-sur-Tarn",131,86.56,4778,54.23,43.853611111111,1.8111111111111,"Francia"
"562","Ljubljana",293,275,284355,1.708,46.05,14.516666666667,"Slovenija"
"563","London",35,1572,7993,5590,51.507222222222,-0.1275,"Reino Unido"
"564","Luxembourg",595,51.46,143697,1800,49.610555555556,6.1327777777778,"Luxemburgo"
"565","Lyon",178,47.87,515695,10041,45.758888888889,4.8413888888889,"Francia"
"566","Martorell",56,12.84,28189,2195.4,41.47444,1.930537,"España"
"567","Milano",125,182.07,1324110,7272.5,45.4637,9.18817,"Italia"
"568","Mislata",30,2.06,43691,21209.22,39.4747357,-0.4160286,"España"
"569","Mollerussa",255,7.05,14683,2082.7,41.631666666667,0.89611111111111,"España"
"570","Montélimar",91,46.81,39097,835.23,44.558611111111,4.7508333333333,"Francia"
"571","Monzón",279,155.01,17236,111.19,41.9,0.18333333333333,"España"
"572","Mulhouse",247,22.18,110612,4934.31,47.748611111111,7.3391666666667,"Francia"
"573","Muro de Alcoy",410,30.24,9324,308.33,38.779722222222,-0.43611111111111,"España"
"574","Nancy",206,15.01,105743,6947.77,48.692777777778,6.1836111111111,"Francia"
"575","Nantes",15,65.19,314503,4490,47.217222222222,-1.5538888888889,"Francia"
"576","Nîmes",55,161.85,150610,930.55,43.836944444444,4.36,"Francia"
"577","Olot",4434,29.1,35228,1210.58,42.1821928,2.4890165,"España"
"578","Orange",50,74.2,28919,389.74,44.1375,4.8088888888889,"Francia"
"579","Ortuella",65,7.65,8395,1097.39,43.310277777778,-3.0569444444444,"España"
"580","Palafrugell",62,26.93,22974,853.1,41.918182,3.16302,"España"
"581","Paris",79,105.4,2190327,20781.1,48.8032,2.3511,"Francia"
"582","Pau",178,2490,308577,123.93,43.300833333333,-0.37,"Francia"
"583","Peralada",25,43.61,1850,42.42,42.3085047,3.0089916,"España"
"584","Puigcerdà",1202,18.62,9258,497.21,42.431666666667,1.9283333333333,"España"
"585","Revel",210,35.31,9582,271.37,43.458611111111,2.0041666666667,"Francia"
"586","Ripoll",691,73.3,10686,145.78,42.201085,2.190272,"España"
"587","Riudecanyes",195,17.1,1124,65.73,41.130174,0.960748,"España"
"588","Roda de Berà",57,16.5,6567,398,41.18565,1.45682,"España"
"589","Rubí",123,32.2,77464,2405.71,41.493333333333,2.0325,"España"
"590","Saint-Laurent-de-la-Salanque",8,12.39,10246,826.96,42.773611111111,2.9908333333333,"Francia"
"591","Salon-de-Provence",85,70.3,45528,647.62,43.640555555556,5.0972222222222,"Francia"
"592","Sanremo",24,54.87,54824,97112,43.821413888889,7.7865611111111,"Italia"
"593","Sant Feliu de Llobregat",341,11.79,44860,3804.92,41.383333333333,2.0438888888889,"España"
"594","Sant Joan d'Alacant",40,9.64,23915,2480.81,38.401388888889,-0.43666666666667,"España"
"595","Sant Pere de Ribes",44,40.71,30719,754.58,41.259195,1.772998,"España"
"596","Santa Coloma de Gramenet",56,7,119215,17030.71,41.453888888889,2.2111111111111,"España"
"597","Surgères",27,28.71,675,0.24,46.107604,-0.751962,"Francia"
"598","Talant",344,4.9,11439,2.33,47.335468,5.003566,"Francia"
"599","Tarascon",16,73.97,14813,200.26,43.805,4.6594444444444,"Francia"
"600","Terrassa",286,70.2,220556,3141.82,41.561111111111,2.0080555555556,"España"
"601","Tiana",136,7.9,8840,1118.99,41.483055555556,2.2697222222222,"España"
"602","Torredembarra",5,8.7,16184,1860.23,41.145668,1.395671,"España"
"603","Tortona",137,99.29,27440,268.75,44.894166666667,8.8655555555556,"Italia"
"604","Vannes",13,32.3,53352,1651.76,47.655,-2.7616666666667,"Francia"
"605","Venezia",8,414.6,261905,653.41,45.439722222222,12.331944444444,"Italia"
"606","Ventimiglia",9,54,24065,472,43.790277777778,7.6083333333333,"Italia"
"607","Vic",484,30.92,46214,1494.63,41.930379,2.254575,"España"
"608","Zumaia",15,11.28,10098,895.21,43.283333,-2.25,"España"
"609","Zürich",412,87.88,415215,4724.8,47.378611111111,8.54,"Suiza"
"610","el Masnou",27,3.44,23515,6835.76,41.481666666667,2.3177777777778,"España"
"611","l'Escala",14,16,10339,646.19,42.1135764,3.1349656,"España"
"612","la Seu d'Urgell",692,15.16,12089,797.43,42.357777777778,1.4586111111111,"España"
"613","Ivano-Frankivsk",244,119.73,236602,2684,48.922778,24.710556,"Ucrania"
"614","Kosiv",183,986,87223,88.46,48.3256,24.9869,"Ucrania"
"615","Lviv",296,171,727968,4003.4,49.841889,24.0315,"Ucrania"
"616","Lourenzá",55,62.64,2140,34.16,43.471111111111,-7.2994444444444,"España"
"617","Mondoñedo",141,142.66,3568,25.01,43.428055555556,-7.3627777777778,"España"
"618","Armilla",671,4.42,24174,5469.23,37.142777777778,-3.6277777777778,"España"
"619","Cijuela",540,17.92,3322,185.38,37.2,-3.8105555555556,"España"
"620","Cúllar",897,427.66,4129,9.65,37.583611111111,-2.5763888888889,"España"
"621","Huéscar",953,473.46,7253,15.32,37.809444444444,-2.5394444444444,"España"
"622","Huétor Tájar",486,39.94,10286,0.26,37.197243,-4.048138,"España"
"623","Santiago-Pontones",1340,684,2956,4.32,38.09875355,-2.65655369443,"España"
"624","Tíjola",713,70,3541,50.59,37.4013884,-2.49814351607,"España"
"625","Zújar",775,102.12,2548,24.95,37.541388888889,-2.8416666666667,"España"
"626","Piedralaves",717,55.25,2061,37.3,40.317222222222,-4.6980555555556,"España"
"627","Puente de Génave",540,38,2159,56.82,38.354566,-2.803195,"España"
"628","Villacarrillo",812,239.55,10726,44.78,38.115277777778,-3.0872222222222,"España"
"629","Altsasu/Alsasua",528,26.72,7443,278.56,42.89999,-2.16516,"España"
"630","Hinojosa del Duque",542,531.47,6788,12.77,38.4983616,-5.1450353,"España"
"631","Linyola",248,28.7,2700,94.08,41.712222222222,0.90555555555556,"España"
"632","Cuarte de Huerva",299,8.9,13303,1494.72,41.5935919,-0.9388829,"España"
"633","Mota del Cuervo",714,176.18,5990,34,39.5002943,-2.8681772,"España"
"634","Cangas del Narcea",376,823.57,12347,14.99,43.1774374,-6.5499784,"España"
"635","Alfarràs",281,11.4,2797,245.35,41.832777777778,0.57222222222222,"España"
"636","Pozoblanco",649,332,17210,51.84,38.378021,-4.8485761,"España"
"637","Monturque",395,32.83,1958,59.64,37.473299,-4.5814876,"España"
"638","Galve",1188,61.9,162,2.62,40.6552414,-0.8812969,"España"
"639","Graus",469,299.79,3395,11.32,42.190555555556,0.33833333333333,"España"
"640","A Gudiña",974,171.42,1254,7.32,42.060833333333,-7.1380555555556,"España"
"641","Ames",63,80.04,31793,397.21,42.86,-8.65,"Francia"
"642","Ardón",591,48.65,533,10.96,46.774036,5.888948,"España"
"643","Barbadás",261,30.24,10951,0.36,42.298145,-7.887127,"España"
"644","Fuenlabrada",665,39.49,193700,4905.04,40.283333333333,-3.8,"España"
"645","Medina de Rioseco",733,115.17,4647,40.35,41.883055555556,-5.0427777777778,"España"
"646","Puebla de Sanabria",941,81.39,1373,16.87,42.055277777778,-6.6336111111111,"España"
"647","Tres Cantos",710,37.93,47722,1258.16,40.6065832,-3.7065364,"España"
"648","Villalpando",690,126.92,1475,11.62,41.864722222222,-5.4130555555556,"España"
"649","Villanubla",843,45.36,2713,59.81,41.711388888889,-4.8447222222222,"España"
"650","Castellbisbal",132,31.04,12390,399.16,41.476666666667,1.9822222222222,"España"
"651","Les Useres",401,80.7,962,11.92,40.18488405,-0.131293418536,"España"
"652","Sant Cugat del Vallès",124,48.2,91006,1888.09,41.473538,2.085244,"España"
"653","Alboraya",5,8.3,24454,2946.27,39.5009954,-0.34948,"España"
"654","Alfaro",300,194.12,9476,48.82,42.178333333333,-1.7475,"España"
"655","Altea",61,34.43,22290,647.4,38.6,-0.048888888888889,"España"
"656","Bellreguard",15,2.9,4608,1588.97,38.9461691,-0.1622624,"España"
"657","Catral",12,20.01,8639,431.73,38.159444444444,-0.805,"España"
"658","Galapagar",890,65,33742,519.11,40.576388888889,-4.0019444444444,"España"
"659","Nules",13,50.5,13103,259.47,39.8525,-0.15055555555556,"España"
"660","Rennes",48,50.39,216815,4165,48.114166666667,-1.6808333333333,"Francia"
"661","Utiel",720,236,11531,48.86,39.567222222222,-1.2066666666667,"España"
"662","Ondara",36,10.41,6894,662.25,38.826944444444,-0.0175,"España"
"663","Teulada",185,32.24,11112,344.67,38.729166666667,0.10194444444444,"Italia"
"664","Font-Romeu-Odeillo-Via",1590,29.6,1928,65.14,42.497777777778,2.0338888888889,"Francia"
"665","Valtierra",263,49.891,2412,48.35,42.195277777778,-1.6341666666667,"España"
"666","Amorebieta-Etxano",90,58.46,19339,330.81,43.219166666667,-2.7341666666667,"España"
"667","Sada",206,27.49,15841,576.25,43.34730565,-8.27690435382,"España"
"668","Alzira",14,110.46,44352,401.52,39.15,-0.435,"España"
"669","Barakaldo",39,25.03,100881,4030.4,43.297222222222,-2.9916666666667,"España"
"670","Barbastro",341,107.6,16979,157.8,42.033333333333,0.11666666666667,"España"
"671","Basauri",64,7.16,40589,5668.85,43.236666666667,-2.89,"España"
"672","Burlada/Burlata",423,2.12,19096,9007.55,42.82648,-1.61563,"España"
"673","Cariño",10,47.2,4072,86.3,43.7326,-7.87777,"España"
"674","Colindres",10,6,8484,1414,43.396666666667,-3.4483333333333,"España"
"675","Fanlo",1320,187.1,101,0.54,42.586944444444,-0.021944444444444,"España"
"676","Hendaye",28,7.95,16484,2053.84,43.358611111111,-1.7744444444444,"Francia"
"677","Llanes",9,263.59,13568,51.47,43.4211205,-4.7530835,"España"
"678","Marcheprime",54,24.56,4724,192.35,44.692222222222,-0.855,"Francia"
"679","Noja",10,9.2,2556,277.83,43.481388888889,-3.5186111111111,"España"
"680","Pasaia",4,11.34,16156,1424.69,43.326388888889,-1.9191666666667,"España"
"681","Puente la Reina de Jaca",707,48.1,255,5.3,42.556824,-0.7863951,"España"
"682","Ribadesella",2,84.37,5746,68.1,43.44592675,-5.08345144591,"España"
"683","Siero",260,211.23,51667,245.12,43.389722222222,-5.6611111111111,"España"
"684","Talence",14,8.35,42606,5102.51,44.808598,-0.588308,"Francia"
"685","Tapia de Casariego",29,65.99,3786,57.37,43.5692,-6.9437,"España"
"686","Urraul Bajo",455,59.41,322,5.42,42.714166666667,-1.3225,"España"
"687","Val de San Vicente",50,50.9,2728,53.6,43.3775,-4.4836111111111,"España"
"688","Majadahonda",740,38.48,71826,1866.58,40.472777777778,-3.8722222222222,"España"
"689","Rincón de la Victoria",8,27.51,47179,1714.98,36.7162109,-4.2793767,"España"
"690","Banyeres de Mariola",816,50.28,7068,140.57,38.715833333333,-0.65722222222222,"España"
"691","Oza dos Ríos",188,72.14,3204,44.41,43.216666666667,-8.1830555555556,"España"
"692","Vilasantar",485,59.22,1213,20.48,43.07582575,-8.09582922736,"España"
"693","Lepe",18,127.94,27431,214.41,37.25,-7.2,"España"
"694","Sanlúcar la Mayor",148,135.49,13808,101.91,37.385833333333,-6.2016666666667,"España"
"695","Bornos",182,54.31,7670,141.23,36.8212339,-5.7434906,"Francia"
"696","Blagnac",151,16.88,24517,1452.43,43.635555555556,1.39,"Francia"
"697","Castelló d'Empúries",17,42.3,10906,257.83,42.258222,3.074669,"España"
"698","Torroella de Montgrí",31,65,11645,179.15,42.043888888889,3.1286111111111,"España"
"699","Cantalejo",96367,79.43,3523,44.35,41.258888888889,-3.9286111111111,"España"
"700","Cuéllar",85793,348.66,9583,27.49,41.400924,-4.313588,"España"
"701","Cehegín",570,292.7,14983,51.19,38.0925078,-1.7987525,"España"
"702","Mula",313,633.38,16883,26.66,38.0418669,-1.4906872,"España"
"703","Almeida",810,76.37,452,6.27,40.725916666667,-6.9055833333333,"Portugal"
"704","Biscarrosse",27,160.48,14182,88.37,44.393055555556,-1.1638888888889,"Francia"
"705","Bègles",11,9.96,28601,2871.59,44.837777777778,-0.57944444444444,"Francia"
"706","Casarrubios del Monte",616,92.42,5681,61.47,40.188055555556,-4.0394444444444,"España"
"707","Guarda",1056,717.88,42541,59.26,40.536388888889,-7.2683333333333,"Portugal"
"708","Hospital de Órbigo",820,4.8,987,203.33,42.462725,-5.881549,"España"
"709","La Chapelle-Saint-Mesmin",106,8.96,10353,1155.47,47.889722222222,1.8397222222222,"Francia"
"710","La Couronne",59,28.82,7732,268.29,45.6075,0.1,"Francia"
"711","Labouheyre",71,36.13,2731,75.59,44.2125,-0.91916666666667,"Francia"
"712","Lormont",57,7.36,23538,3198.1,44.879166666667,-0.52166666666667,"Francia"
"713","Madrigal de la Vera",396,42,1579,37.6,40.1475,-5.3668055555556,"España"
"714","Mirandela",225,658.45,23850,36.19,41.483333333333,-7.1833333333333,"Portugal"
"715","Orléans",116,27.48,116685,4246.18,47.902222222222,1.9041666666667,"Francia"
"716","Pessac",37,38.82,63808,1643.69,44.805833333333,-0.63222222222222,"Francia"
"717","Peyrehorade",15,16.11,3695,229.36,43.545,-1.1,"Francia"
"718","Poitiers",115,42.11,88291,2096.68,46.581111111111,0.33527777777778,"Francia"
"719","Pombal",68,626.1,58617,93.6,39.9138,-8.62749,"Portugal"
"720","Puteaux",38,3.19,44645,13995.3,48.884166666667,2.2380555555556,"Francia"
"721","Saint-Jean-de-Luz",11,19.05,14093,739.79,43.390277777778,-1.6597222222222,"Francia"
"722","Savenay",57,26,8679,333.81,47.361111111111,-1.9419444444444,"Francia"
"723","Strasbourg",151,78.26,280966,3590.16,48.573333333333,7.7522222222222,"Francia"
"724","Tours",56,34.36,135787,3951.89,47.392777777778,0.68833333333333,"Francia"
"725","Vila Real",42,55.12,50893,923.31,39.937777777778,-0.10138888888889,"España"
"726","École-Valentin",326,3.22,2609,810.25,47.272222222222,5.9847222222222,"Francia"
"727","Orba",154,17.73,2174,122.62,38.78,-0.064444444444444,"España"
"728","Cabezón de la Sal",128,33.56,8301,247.35,43.3075,-4.2325,"España"
"729","Entrambasaguas",45,43.2,5163,119.51,43.377777777778,-3.6766666666667,"España"
"730","Potes",291,7.64,1343,175.79,43.153611111111,-4.6233333333333,"España"
"731","Guijuelo",1003,63.23,5633,89.09,40.5575,-5.6713888888889,"España"
"732","Santa Cruz de Paniagua",476,83.31,323,3.88,40.1925,-6.3397222222222,"España"
"733","Santovenia de Pisuerga",692,13.74,4480,326.06,41.696388888889,-4.6883333333333,"España"
"734","Vilanova i la Geltrú",22,33.99,67086,1973.7,41.224277,1.725905,"España"
"735","Castilblanco",501,131.6,951,7.23,39.305555555556,-5.1102777777778,"España"
"736","Herrera del Duque",468,277.3,3482,12.56,39.168611111111,-5.0511111111111,"España"
"737","Puebla de Alcocer",527,296.7,1184,3.99,38.985,-5.2577777777778,"España"
"738","Sevilleja de la Jara",665,234,682,2.91,39.573611111111,-4.9644444444444,"España"
"739","Talarrubias",435,339.3,3412,10.06,39.034166666667,-5.2361111111111,"España"
"740","Avignon",33,64.91,91921,1416.13,43.948611111111,4.8083333333333,"Francia"
"741","Vedène",151,11.18,11233,1,58.806969,46.88955,"Francia"
"742","Almazán",960,166.53,5489,32.96,41.485833333333,-2.5330555555556,"España"
"743","Galar",440,44.81,2273,50.73,42.750305555556,-1.6715833333333,"España"
"744","Cariñena",494,82.5,3302,40.02,41.3373638,-1.2249058,"España"
"745","Illueca",576,24.86,2924,117.62,41.5380292,-1.6283634,"España"
"746","Valga",36,40.72,5927,0.15,42.700364,-8.64892,"España"
"747","Blanes",3,17.89,39028,2181.55,41.676944444444,2.7916666666667,"España"
"748","Cañete la Real",736,165.24,1665,10.08,36.953459,-5.02543,"España"
"749","Cuevas del Becerro",724,16,1589,99.31,36.8759415,-5.0441003,"España"
"750","Sort",692,105.13,2149,20.44,42.410086,1.128661,"Francia"
"751","Oleiros",92,43.66,36075,826.27,43.3547539,-8.32870852409,"España"
"752","Cazalla de la Sierra",600,356.15,4718,13.25,37.932017,-5.759627,"España"
"753","El Pedroso",413,314.25,2018,6.42,37.842222222222,-5.7636111111111,"España"
"754","Bullas",650,82.2,11530,140.27,38.049722222222,-1.6705555555556,"Francia"
"755","Moratalla",681,954.82,7839,8.21,38.186388888889,-1.8905555555556,"España"
"756","Puebla de Don Fadrique",1164,523.38,2250,4.3,37.958055555556,-2.435,"España"
"757","Malgrat de Mar",4,8.92,18579,2082.85,41.645555555556,2.7427777777778,"España"
"758","Vallirana",278,23.81,15006,630.24,41.3877623,1.9320806,"España"
"759","La Luisiana",170,42.97,4604,107.1,37.5261,-5.24872,"España"
"760","Béjar",953,45.74,12739,278.51,40.384722222222,-5.7619444444444,"España"
"761","Caleruela",322,9.42,208,22.08,39.873611111111,-5.2586111111111,"España"
"762","Calera y Chozas",392,219.53,4646,21.16,39.885277777778,-4.9825,"España"
"763","Gilena",465,50.97,3727,73.12,37.251388888889,-4.9136111111111,"España"
"764","Navalvillar de Pela",368,251.2,4424,17.61,39.083333333333,-5.4666666666667,"España"
"765","Almuradiel",808,66.16,772,11.67,38.5125,-3.4947222222222,"España"
"766","Alcalá de los Gazules",165,479.59,5219,10.88,36.4618805,-5.7238891,"España"
"767","Brive-la-Gaillarde",119,48.59,46916,965.55,45.158888888889,1.5330555555556,"Francia"
"768","Rouen",21,21.38,110145,5151.78,49.443055555556,1.1025,"Francia"
"769","Rouxmesnil-Bouteilles",34,5.62,1847,328.65,49.905277777778,1.0902777777778,"Francia"
"770","Benicarló",21,47.9,26912,561.84,40.418611111111,0.42305555555556,"España"
"771","Benicasim/Benicàssim",15,36.1,18192,503.93,40.055277777778,0.064166666666667,"España"
"772","La Vall d'Uixó",118,67.1,31660,471.83,39.8235837,-0.2316995,"España"
"773","Sant Boi de Llobregat",30,21.48,83605,3892.23,41.345833333333,2.0416666666667,"España"
"774","Torreblanca",31,29.8,5528,185.5,40.220555555556,0.19527777777778,"España"
"775","Castro de Rei",444,176.9,5052,28.56,43.208055555556,-7.3986111111111,"España"
"776","Curtis",510,116.57,3983,34.17,43.1272044,-8.1431838,"España"
"777","Guitiriz",454,293.97,5484,18.65,43.181944444444,-7.8952777777778,"España"
"778","Outeiro de Rei",414,134.2,5151,38.38,43.1024649,-7.6136338,"España"
"779","Rábade",400,5.2,1501,288.65,43.111944444444,-7.6186111111111,"España"
"780","Bárcena de Cicero",10,36.63,613,112.8,43.422777777778,-3.5172222222222,"España"
"781","Peal de Becerro",550,147,5266,35.82,37.9121459,-3.1240753,"España"
"782","Torreperogil",755,90.1,7276,80.75,38.034339,-3.291725,"España"
"783","Lalín",514,326.83,20218,61.86,42.6614127,-8.1109759,"España"
"784","Sant Celoni",153,65.2,17904,274.6,41.689515,2.489678,"España"
"785","Cardedeu",198,12.89,18357,1424.13,41.640555555556,2.3594444444444,"España"
"786","Herrera de Pisuerga",844,99.08,1966,19.84,42.593055555556,-4.3322222222222,"España"
"787","Librilla",119,56,5305,94.73,37.883055555556,-1.35,"España"
"788","Pilas",63,45.94,13974,304.18,37.301666666667,-6.3025,"España"
"789","Sisante",745,134.36,1642,12.22,39.410833333333,-2.2027777777778,"España"
"790","Almadén",589,239.64,5312,22.17,38.766666666667,-4.8166666666667,"España"
"791","Calzada de Calatrava",646,410.94,3719,9.05,38.703888888889,-3.7763888888889,"España"
"792","Corral de Almaguer",724,328.7,5352,16.28,39.76,-3.1666666666667,"España"
"793","Fuente el Fresno",720,119.46,3220,26.95,39.2276397,-3.7741252,"España"
"794","Lillo",684,151,2577,17.07,39.721389,-3.304722,"Francia"
"795","Malagón",646,365,7998,21.91,39.171666666667,-3.8547222222222,"España"
"796","Membrilla",670,143.9,6005,41.73,38.972222222222,-3.3483333333333,"España"
"797","Puebla del Príncipe",940,33.97,694,20.43,38.568888888889,-2.9255555555556,"España"
"798","Requena",692,814.2,20254,24.88,39.488538,-1.1023083,"España"
"799","Santa Cruz de la Zarza",790,264.54,4129,15.61,39.976666666667,-3.1908333333333,"España"
"800","Sonseca",754,59.56,11067,185.81,39.678888888889,-3.9702777777778,"España"
"801","Villar de la Yegua",713,55.8,174,3.12,40.716944444444,-6.7,"España"
"802","Sant Feliu de Guíxols",4,15.92,21925,1377.2,41.780556,3.030556,"España"
"803","Torrelodones",845,21.95,23717,1080.5,40.576388888889,-3.93,"España"
"804","Vejer de la Frontera",168,262.88,12624,48.02,36.252222222222,-5.9633333333333,"España"
"805","Aldeaquemada",696,121,481,3.98,38.4106741,-3.3714514,"España"
"806","Belmonte",756,92.93,1903,20.48,39.5592831,-2.7038117,"España"
"807","La Solana",745,134.18,15479,115.36,38.941388888889,-3.2394444444444,"España"
"808","Villaescusa de Haro",824,91,470,5.16,39.5975297,-2.6735414,"España"
"809","Pozo Alcón",854,138.61,4673,33.71,37.705,-2.9341666666667,"España"
"810","Gata de Gorgos",78,20.33,6049,297.54,38.774722222222,0.085277777777778,"España"
"811","Marín",14,36.68,24319,663,42.392777777778,-8.6988888888889,"España"
"812","Carbonero el Mayor",917,66.35,2519,37.97,41.1225,-4.2661111111111,"España"
"813","Cerezo de Abajo",1046,19.89,112,5.63,41.217777777778,-3.5922222222222,"España"
"814","Alburquerque",506,723.2,5343,7.39,39.219166666667,-7.0011111111111,"España"
"815","Aldeanueva de la Vera",658,37.6,2066,54.95,40.1292181,-5.7002585,"España"
"816","Almoharín",307,97.3,1811,18.61,39.176366,-6.0440446,"España"
"817","Baños de Montemayor",703,21.98,759,34.53,40.318333333333,-5.8572222222222,"España"
"818","Campanario",398,257.32,4896,19.03,38.8637261,-5.6173532,"España"
"819","Casar de Cáceres",365,130.47,4469,34.25,39.5614765,-6.4171236,"España"
"820","Dos Hermanas",42,160.52,133968,834.59,37.283611111111,-5.9222222222222,"España"
"821","Fregenal de la Sierra",572,236.7,4847,20.48,38.166666666667,-6.65,"España"
"822","Jarandilla de la Vera",585,61.51,2828,45.98,40.126944444444,-5.6583333333333,"España"
"823","Jerez de los Caballeros",505,740.5,9303,12.56,38.320805555556,-6.7730277777778,"España"
"824","Montijo",201,119.7,15457,129.13,38.91,-6.6175,"España"
"825","Muskiz",21,21.5,7507,349.16,43.323333333333,-3.1216666666667,"España"
"826","Oliva de Mérida",332,254.5,1729,6.79,38.7899533,-6.1243458,"España"
"827","San Pedro de Mérida",282,22.8,843,36.97,38.9500043,-6.1858715,"España"
"828","Toro",710,324.86,8713,26.82,41.526111111111,-5.3947222222222,"España"
"829","Villagonzalo",237,40.8,1234,30.25,38.863055555556,-6.1969444444444,"España"
"830","Vitigudino",769,52.33,2499,47.75,41.01,-6.4333333333333,"España"
"831","Castilleja de la Cuesta",96,2,17418,8709,37.386388888889,-6.0516666666667,"España"
"832","Conil de la Frontera",41,88.51,22529,254.54,36.2755873,-6.0877024,"España"
"833","El Campillo",434,90.72,2023,22.3,37.6932336,-6.6299678,"España"
"834","El Carpio",183,46.68,4383,93.89,37.9399109,-4.4987079,"España"
"835","La Carlota",228,78.97,14061,178.05,37.6749292,-4.9296481,"España"
"836","Marmolejo",248,178.07,6812,38.25,38.07972075,-4.16465766522,"España"
"837","Pedro Abad",162,23.46,2837,120.93,37.9662671,-4.4552447,"España"
"838","Porcuna",472,175.57,6235,35.51,37.869722222222,-4.1872222222222,"España"
"839","Rute",635,132.4,9845,74.36,37.3252642,-4.3702381,"España"
"840","Torre del Campo",640,182.08,14247,78.25,37.8346076,-3.90380675468,"España"
"841","Villa del Río",165,22,7104,322.91,37.9811466,-4.2918207,"España"
"842","Consuegra",704,358.49,9998,27.89,39.461944444444,-3.6063888888889,"España"
"843","Ermua",166,6.49,15880,2446.84,43.186666666667,-2.5025,"España"
"844","Oropesa",33,26.4,9076,343.79,40.092222222222,0.13388888888889,"España"
"845","Puebla de Don Rodrigo",496,424.87,1178,2.77,39.086388888889,-4.6205555555556,"España"
"846","San Martín de la Vega",515,105.93,19170,180.97,40.209444444444,-3.5722222222222,"España"
"847","Anglet",25,26.93,38929,1445.56,43.484166666667,-1.5194444444444,"Francia"
"848","Beasain",159,30.02,13880,462.36,43.0473269,-2.2032868,"España"
"849","Benagéber",715,69.8,192,2.75,39.736666666667,-1.1,"España"
"850","Biarritz",40,11.66,25404,2178.73,43.480555555556,-1.5572222222222,"Francia"
"851","Bidart",27,12,6811,560.58,43.436944444444,-1.5930555555556,"Francia"
"852","Bénesse-Maremne",17,18.69,3234,173.03,43.634166666667,-1.36,"Francia"
"853","Colmenar Viejo",883,182.6,50752,277.94,40.6587901,-3.7663207,"España"
"854","Errenteria",12,32.26,39471,1223.53,43.3125271,-1.8986133,"España"
"855","Genova",31,243,580097,250306,44.407186111111,8.9339833333333,"Italia"
"856","Ibos",322,32.88,2895,88.05,43.233055555556,0.0016666666666667,"Francia"
"857","Lille",27,34.83,232787,6683.52,50.631944444444,3.0575,"Francia"
"858","Loiu",27,15,2433,162.2,43.3147645,-2.9388878,"España"
"859","Lons",167,11.53,13374,1159.93,43.315,-0.41083333333333,"Francia"
"860","Mont-de-Marsan",48,36.88,29554,801.36,43.890277777778,-0.50055555555556,"Francia"
"861","Mérignac",33,48.17,70105,1455.37,44.8425,-0.645,"Francia"
"862","Saintes",12,45.55,25470,559.17,45.745277777778,-0.63444444444444,"Francia"
"863","Sartrouville",39,8.46,51967,6142.67,48.945277777778,2.17,"Francia"
"864","Sarzana",28,34.23,22133,624,44.113608333333,9.9599583333333,"Italia"
"865","Torhout",22,45.23,20530,453.9,51,3,"Belgien"
"866","El Cuervo de Sevilla",63,30.44,8610,282.85,36.851111111111,-6.0416666666667,"España"
"867","Los Palacios y Villafranca",8,109.47,38354,350.36,37.16,-5.9236111111111,"España"
"868","Jávea/Xàbia",48,68.59,27604,402.45,38.789166666667,0.16305555555556,"España"
"869","Meliana",12,4.7,10822,2302.55,39.527222222222,-0.34916666666667,"España"
"870","Pedreguer",83,30.3,7699,254.09,38.793333333333,0.034166666666667,"España"
"871","Saint-Lary-Soulan",823,90.97,835,9.18,42.815833333333,0.32277777777778,"Francia"
"872","Jimena de la Frontera",203,297,6951,23.4,36.433333,-5.45,"España"
"873","La Alberca",1048,60.73,1081,17.8,40.489166666667,-6.1111111111111,"España"
"874","Nava de Francia",1041,16.51,126,7.63,40.535555555556,-6.1169444444444,"España"
"875","Puerto del Rosario",16,289.95,40753,140.55,28.5,-13.866667,"España"
"876","Olías del Rey",588,39.94,7880,197.3,39.943333333333,-3.9877777777778,"España"
"877","Grazalema",913,122.41,2027,16.56,36.758644444444,-5.3692422222222,"España"
"878","Oloron-Sainte-Marie",219,68.31,10684,156.4,43.194166666667,-0.60666666666667,"Francia"
"879","Los Arcos",415,57.67,1134,19.66,42.566666666667,-2.1830555555556,"España"
"880","Viana",469,78,4209,53.96,42.5151135,-2.3717803,"España"
"881","Bormujos",98,12.2,21972,1800.98,37.370833333333,-6.0708333333333,"España"
"882","Casariche",296,52.9,5456,103.14,37.293888888889,-4.7594444444444,"España"
"883","Casares",435,160,6515,40.72,36.444444444444,-5.2727777777778,"España"
"884","Cuntis",200,79.8,4677,58.61,42.6353362,-8.5617942,"España"
"885","Angers",30,42.7,152960,3582.2,47.472777777778,-0.55555555555556,"Francia"
"886","Millau",379,168.23,22109,131.42,44.097777777778,3.0777777777778,"Francia"
"887","Rodez",644,11.18,24057,2151.79,44.35,2.5741666666667,"Francia"
"888","Souillac",110,25.92,3284,126.7,44.897777777778,1.4741666666667,"Francia"
"889","Sète",229,24.21,4362,1785.58,37.6184,-7.954174,"Francia"
"890","Calahorra",358,93.57,24220,258.84,42.303333333333,-1.9647222222222,"España"
"891","Lich",173,77.64,13349,0.17,50.490967,8.790046,"Alemania"
"892","Bienvenida",606,92.2,2087,22.64,38.2991917,-6.2092697,"España"
"893","Canfranc",1040,71.6,540,7.54,42.71,-0.52,"España"
"894","Montblanc",355,91.11,7364,80.83,41.376405555556,1.1638694444444,"Francia"
"895","San Cristóbal de Segovia",1074,6.35,3051,480.47,40.951944444444,-4.0755555555556,"España"
"896","Camargo",35,36.58,30260,827.23,43.426666666667,-3.8552777777778,"España"
"897","Cangas de Onís",155,213.24,6163,28.97,43.31446175,-5.06658300275,"España"
"898","Carreño",83,66.7,10337,163.96,43.5516096,-5.78944628636,"España"
"899","Castropol",35,125.77,3402,27.05,43.5276581,-7.0300508,"España"
"900","La Puebla del Río",20,375.14,11868,31.64,37.267222222222,-6.0625,"España"
"901","Argelès-sur-Mer",5,58.67,10383,176.97,42.556684,3.043355,"Francia"
"902","Le Boulou",89,14.42,5514,382.39,42.523888888889,2.83,"Francia"
"903","Adra",20,90.05,25148,279.27,36.75,-3.0166666666667,"España"
"904","Algarinejo",608,92.11,2520,27.36,37.325,-4.1586111111111,"España"
"905","Alhama de Granada",895,433.5,5979,13.79,37.002555,-3.988069,"España"
"906","Arenas de San Pedro",510,194.85,6377,32.73,40.208888888889,-5.0911111111111,"España"
"907","Ayamonte",63,141.29,20946,148.25,37.2135703,-7.4031237,"España"
"908","Cuevas del Campo",855,96.61,1735,17.96,37.6067914,-2.929068,"España"
"909","Granollers",150,14.9,61275,4112.42,41.608333,2.288889,"España"
"910","Gualchos",338,31.03,5193,167.35,36.743611111111,-3.3897222222222,"España"
"911","Iznájar",522,136.36,4261,31.25,37.2567255,-4.3100913,"España"
"912","La Guardia de Jaén",635,38.43,5011,130.39,37.741944444444,-3.6925,"España"
"913","Lebrija",36,375.2,27524,73.36,36.919444444444,-6.0780555555556,"España"
"914","Martos",753,259.1,24215,93.46,37.722777777778,-3.9658333333333,"España"
"915","Mazarrón",55,318.7,32209,101.06,37.59838,-1.3139024,"España"
"916","Mutxamel",63,47.67,25352,531.82,38.413611111111,-0.44555555555556,"España"
"917","Priego de Córdoba",652,288.27,22408,77.73,37.4384292,-4.1980422,"España"
"918","Pulpí",197,96,10055,104.74,37.401845,-1.7507642,"España"
"919","Purullena",935,21.19,2293,108.21,37.314722222222,-3.1894444444444,"España"
"920","Torredonjimeno",589,157.8,13696,86.79,37.7614218,-3.9509951,"España"
"921","Viator",95,21,5885,280.24,36.88872,-2.4251,"España"
"922","Adeje",295,105.95,47869,451.81,28.116666666667,-16.716666666667,"España"
"923","Arona",630,81.79,81216,992.98,28.0996248,-16.6809103,"Italia"
"924","Lablachère",246,31.38,2081,0.07,44.463941,4.214878,"Francia"
"925","Lunel",13,23.9,26239,1097.87,43.676944444444,4.1352777777778,"Francia"
"926","Mus",7,2.6,1410,542.31,43.739722,4.201111,"Francia"
"927","Saint-Girons",24,19.13,6324,0.33,55.898555,-2.131562,"Francia"
"928","Calaf",680,9.22,3535,383.41,41.7326746,1.5148194,"España"
"929","Vinuesa",1,143.06,855,5.98,41.911388888889,-2.7627777777778,"España"
"930","Abla",861,45.24,1249,27.61,37.142222222222,-2.7772222222222,"España"
"931","Parla",6485,24.43,130124,5326.4,40.237222222222,-3.7741666666667,"España"
"932","Ponts",363,30.77,2601,84.53,41.9160096,1.1882504,"Francia"
"933","Casas de Don Pedro",386,142.7,1439,10.08,39.105649,-5.3308461,"España"
"934","Arroyomolinos",647,20.66,31396,1519.65,40.269166666667,-3.92,"España"
"935","Palma del Río",55,200.19,21064,105.22,37.6949622,-5.2804262,"España"
"936","Léognan",35,41.43,10372,250.35,44.728611111111,-0.60083333333333,"Francia"
"937","Acebo",574,57.4,579,10.09,40.2,-6.7166666666667,"España"
"938","Cartaya",20,226.4,19974,88.22,37.2831601,-7.1549301,"España"
"939","Mairena del Aljarafe",85,17.7,46089,2603.9,37.344444444444,-6.0652777777778,"España"
"940","Punta Umbría",6,38,15242,401.11,37.182222222222,-6.9669444444444,"España"
"941","Tavira",14,607.17,26167,42.97,37.087,-7.666,"Portugal"
"942","Ayerbe",582,63.89,1009,15.79,42.276666666667,-0.68916666666667,"España"
"943","Tolosa",74,37.38,19667,526.14,43.1386097,-2.0723558,"Francia"
"944","els Pallaresos",121,5.53,4777,863.83,41.17523,1.269452,"España"
"945","Guissona",485,18.1,7136,394.25,41.784672222222,1.2879722222222,"España"
"946","Margalef",379,34.7,97,2.8,41.28477,0.75371,"España"
"947","Santa Coloma de Queralt",674,33.9,2673,78.85,41.532435,1.383852,"España"
"948","Vilanova de Prades",893,21.51,112,5.21,41.34783,0.95667,"España"
"949","Artigues-près-Bordeaux",1198,7.36,8373,1.14,42.717652,2.068027,"Francia"
"950","Capbreton",6,21.75,8769,403.17,43.641944444444,-1.4322222222222,"Francia"
"951","Gemeinde Sankt Valentin",272,45.64,9340,204.65,48.174722222222,14.533333333333,"Austria"
"952","Jurançon",189,18.78,7113,0.38,43.283475,-0.38624,"Francia"
"953","Kisvárda",102,35.9,16473,0.46,48.218747,22.080372,"Hungria"
"954","Manteigas",765,121.98,3430,28.12,40.366111111111,-7.5461111111111,"Portugal"
"955","Montluçon",215,20.67,36946,1.79,46.342372,2.607574,"Francia"
"956","Saint-Victor",212,23.22,2098,90.35,46.395,2.6080555555556,"Francia"
"957","Bouguenais",26,31.5,19331,613.68,47.179166666667,-1.6247222222222,"Francia"
"958","Troyes",110,13.2,61652,4670.61,48.298888888889,4.0780555555556,"Francia"
"959","Deleitosa",564,144,709,4.92,39.643611111111,-5.6458333333333,"España"
"960","Canals",157,21.86,13587,621.55,38.953611111111,-0.58472222222222,"Francia"
"961","Castellar",12,2.984,6800,2278.82,39.426388888889,-0.36416666666667,"Italia"
"962","Chauchina",551,21.21,5565,262.38,37.201388888889,-3.7725,"España"
"963","Motilla del Palancar",836,73.89,5869,79.43,39.5629676,-1.9119709,"España"
"964","Villanueva de la Reina",221,209,3081,14.74,38.0051245,-3.9145513,"España"
"965","Chucena",147,26,2222,85.46,37.36155,-6.39394,"España"
"966","Guadahortuna",952,121.24,1935,15.96,37.558055555556,-3.3991666666667,"España"
"967","Dosbarrios",707,111.59,2223,19.92,39.883055555556,-3.4811111111111,"España"
"968","Valverde del Camino",260,218.7,12820,58.62,37.5739612,-6.7543559,"España"
"969","La Guardia",630,81.08,1494,18.43,42.55,-2.5830555555556,"España"
"970","Albaladejo",1000,48.94,1158,23.66,38.618055555556,-2.8061111111111,"España"
"971","Barrax",731,189.86,1833,9.65,39.0460357,-2.2004126,"España"
"972","Ruidera",821,39.2,553,14.11,38.97996105,-2.89306204616,"España"
"973","Villacañas",664,268.51,9548,35.56,39.615833333333,-3.3397222222222,"España"
"974","Celanova",530,67.31,5649,83.93,42.150833333333,-7.9566666666667,"España"
"975","O Carballiño",397,54,14027,259.76,42.429638,-8.077466,"España"
"976","Ademuz",741,100.4,1042,10.38,40.0632676,-1.2862304,"España"
"977","Braga",215,183.51,181494,991,41.533333333333,-8.4166666666667,"Portugal"
"978","Bragança",694,1.174,35341,30.11,41.8,-6.75,"Portugal"
"979","Medina de las Torres",529,87.4,1184,13.55,38.343611111111,-6.4116666666667,"España"
"980","Puebla de Sancho Pérez",538,56.7,2709,47.78,38.398055555556,-6.4,"España"
"981","Antzuola",276,27.72,2126,76.7,43.0990781,-2.380624,"España"
"982","Carrión de los Condes",838,63.37,2069,32.65,42.338888888889,-4.6019444444444,"España"
"983","Cheste",218,71.4,8494,118.96,39.479722222222,-0.68444444444444,"España"
"984","el Pinós",574,126.48,7966,62.98,38.42310255,-1.03371058386,"España"
"985","Alfafar",6,10.1,20890,2068.32,39.422222222222,-0.38972222222222,"España"
"986","Lahitte-Toupière",207,5.6,259,46.25,43.660275,0.680497,"Francia"
"987","Lladurs",834,128,176,1.38,42.044719,1.508591,"España"
"988","Tremp",468,302.47,5844,19.32,42.16668,0.89465,"España"
"989","Xirivella",168,5.2,29623,5696.73,39.465555555556,-0.42666666666667,"España"
"990","Zuera",279,332.25,8565,25.78,41.869166666667,-0.78805555555556,"España"
"991","la Pobla de Segur",526,33.38,2984,89.39,42.2473665,0.9672725,"España"
"992","Montemolín",615,202.7,1343,6.63,38.1542754,-6.2123046,"España"
"993","Matadepera",423,24.83,9326,375.59,41.603611111111,2.0244444444444,"España"
"994","Auxerre",128,49.95,34634,693.37,47.7975,3.5669444444444,"Francia"
"995","La Roche-Noire",436,3.07,618,201.3,45.7075,3.2241666666667,"Francia"
"996","Belorado",772,133.41,1781,13.35,42.4205133,-3.1902362,"España"
"997","Santo Domingo de la Calzada",639,40.09,6238,155.6,42.441944444444,-2.9525,"España"
"998","Zizur Mayor/Zizur Nagusia",470,5.6,14894,2659.64,42.786666666667,-1.6908333333333,"España"
"999","Hornachuelos",185,909.22,4497,4.95,37.8322536,-5.2482452,"España"
"1000","Peñaflor",52,82.89,3656,44.11,37.707222222222,-5.3469444444444,"España"
"1001","Baena",405,362.51,19284,53.2,37.6194451,-4.3260458,"España"
"1002","Noia",10,37.21,14263,383.31,42.785,-8.8877777777778,"España"
"1003","Pontedeume",28,29.26,7777,265.79,43.4072585,-8.1718823,"España"
"1004","Alcolea del Pinar",1203,113.68,320,2.81,41.036944444444,-2.4655555555556,"España"
"1005","Algadefe",743,15.33,289,18.85,42.217777777778,-5.5827777777778,"España"
"1006","Almagro",646,249.73,8896,35.62,38.888238,-3.7118218,"España"
"1007","Baztan",432,373.55,7777,20.82,43.1628568,-1.49358872861,"España"
"1008","Bermellar",638,28.46,134,4.71,40.998611111111,-6.6711111111111,"España"
"1009","Brunete",656,48.94,10736,219.37,40.4,-3.9936111111111,"España"
"1010","Camuñas",674,102,1726,16.92,39.428888888889,-3.4588888888889,"España"
"1011","Cintruénigo",391,37.34,7903,211.65,42.08,-1.805,"España"
"1012","Guardamar del Segura",25,35.58,15348,431.37,38.089722222222,-0.655,"España"
"1013","La Muela",598,143.49,5784,40.31,41.580833333333,-1.1161111111111,"España"
"1014","Maracena",660,4.89,22116,4522.7,37.2075,-3.6330555555556,"España"
"1015","Meira",485,46.55,1725,37.06,43.213333333333,-7.2941666666667,"España"
"1016","Oliva",25,59.93,25101,418.84,38.919444444444,-0.12111111111111,"España"
"1017","Pedraza",1068,31.58,344,10.89,41.130277777778,-3.8111111111111,"España"
"1018","Real Sitio de San Ildefonso",1193,144.81,5241,36.19,40.901666666667,-4.0066666666667,"España"
"1019","Real de Gandía",21,6.1,2461,403.44,38.9482364,-0.1915574,"España"
"1020","Ribeira",0,68.83,26886,390.61,42.5564829,-8.9922065,"España"
"1021","San Cristóbal de Entreviñas",748,42.53,1385,32.57,42.0468353,-5.6345483,"España"
"1022","San Martín del Pimpollar",1335,45.64,189,4.14,40.368727777778,-5.05405,"España"
"1023","San Vicente de la Barquera",15,41.5,4124,99.37,43.385,-4.3986111111111,"España"
"1024","Sanchidrián",922,26.6,716,26.92,40.891944444444,-4.5813888888889,"España"
"1025","Santa Marta de Magasca",377,39.68,282,7.11,39.5109124,-6.0997476,"España"
"1026","Valderas",750,99.63,1623,16.29,42.0775,-5.4425,"España"
"1027","Valencia del Ventoso",500,99.2,1973,19.89,38.265277777778,-6.4744444444444,"España"
"1028","Valongo",108,72.99,93858,1178.31,41.238055555556,-8.5252777777778,"Portugal"
"1029","Villarta de San Juan",626,66.01,2791,42.28,39.2377119,-3.4219336,"España"
"1030","Órgiva",999,134.1,5649,0.04,36.851627,-3.409463,"España"
"1031","Lliçà d'Amunt",145,22,15256,693.45,41.6104867,2.2397066,"España"
"1032","La Almarcha",875,64,365,5.7,39.686666666667,-2.3797222222222,"España"
"1033","Minglanilla",827,109.64,2221,20.26,39.5346515,-1.5944266,"España"
"1034","Foix",392,19.32,9532,493.37,42.965277777778,1.6069444444444,"Francia"
"1035","Llers",137,21.25,1239,58.31,42.297222222222,2.9133333333333,"España"
"1036","Luc-la-Primaube",683,26.85,5969,222.31,44.313888888889,2.535,"Francia"
"1037","Mangualde",565,220.72,19880,90.67,40.5,-7.6,"Portugal"
"1038","Rellinars",322,17.81,780,43.8,41.6375,1.9108333333333,"España"
"1039","Sant Vicenç de Castellet",176,17.38,9523,547.93,41.66549,1.864089,"España"
"1040","Tulle",242,24.44,14836,607.04,45.265833333333,1.7722222222222,"Francia"
"1041","Chamartín",733,9.18,143424,15631.22,40.472222222222,-3.6822222222222,"España"
"1042","A Rúa",286,35.91,4719,124.17,42.914518,-8.350944,"España"
"1043","Haro",478,40.53,11408,281.47,42.576944444444,-2.8461111111111,"España"
"1044","Villarcayo de Merindad de Castilla la Vieja",599,159.68,4097,25.66,42.939166666667,-3.5719444444444,"España"
"1045","Villardefrades",725,36.41,170,4.67,41.723333333333,-5.2547222222222,"España"
"1046","Adanero",910,31.42,196,6.24,40.945833333333,-4.6066666666667,"España"
"1047","Boimorto",500,82.34,1985,24.11,43.0075,-8.1269444444444,"España"
"1048","Jaraicejo",506,177,465,2.63,39.667777777778,-5.8130555555556,"España"
"1049","La Puebla de Almoradiel",695,106,5168,48.75,39.5988544,-3.1173215,"España"
"1050","Saint-Vincent-de-Tyrosse",33,20.98,7593,361.92,43.661111111111,-1.3041666666667,"Francia"
"1051","Calamocha",884,316.63,4339,13.7,40.92,-1.3008333333333,"España"
"1052","Solivella",489,21.4,633,29.58,41.456019,1.177643,"España"
"1053","Melide",454,101.3,7406,73.11,42.9145741,-8.0136139,"España"
"1054","Palas de Rei",534,199.68,3388,16.97,42.873611111111,-7.8694444444444,"España"
"1055","A Cañiza",570,108.1,5180,47.92,42.212777777778,-8.2744444444444,"España"
"1056","A Pobra de Trives",746,84.17,2067,24.56,42.339444444444,-7.2530555555556,"España"
"1057","Pilar de la Horadada",35,78.1,21905,280.47,37.8675489,-0.7925673,"España"
"1058","San Pedro del Pinatar",13,22.32,25476,1141.4,37.8363098,-0.7885565,"España"
"1059","Alcalá la Real",1029,261.36,21605,82.66,37.4625,-3.9227777777778,"España"
"1060","Benamejí",497,53.35,4966,93.08,37.2671632,-4.5398844,"España"
"1061","Churriana de la Vega",655,6.6,15200,2303.03,37.147777777778,-3.6461111111111,"España"
"1062","El Saucejo",527,92.2,4284,46.46,37.07,-5.0966666666667,"España"
"1063","Kilsby CP",130,54.3,6259,115.4,51.762,-0.228,"Reino Unido"
"1064","Puebla de la Calzada",190,14.25,5845,410.18,38.894166666667,-6.6275,"España"
"1065","Santa Amalia",253,73.6,4021,54.63,39.0111991,-6.0099073,"España"
"1066","Alagón",235,24.22,7163,295.75,41.7711121,-1.1188807,"España"
"1067","Boadilla del Monte",682,47.2,54570,1156.14,40.406944444444,-3.875,"España"
"1068","Hostalric",93,3.38,4221,1248.82,41.748055555556,2.6361111111111,"España"
"1069","Mont-ral",888,34.5,162,4.7,41.28687,1.09792,"España"
"1070","Magacela",485,75.8,530,6.99,38.8956303,-5.7344418,"España"
"1071","Caldas de Reis",24,68.16,9785,143.56,42.602778,-8.638333,"España"
"1072","Macael",554,44,5482,124.59,37.333333333333,-2.3,"España"
"1073","Almargen",510,35,1954,55.83,37.0021136,-5.0211392,"España"
"1074","Burjassot",59,3.4,38024,11183.53,39.5090599,-0.4108581,"España"
"1075","Organyà",558,12.27,784,63.9,42.212777777778,1.3294444444444,"España"
"1076","Los Yébenes",805,676.98,5901,8.72,39.578888888889,-3.8694444444444,"España"
"1077","Saint-Jean-Pied-de-Port",173,2.73,1587,581.32,43.164166666667,-1.2366666666667,"Francia"
"1078","Los Corrales",385,67.06,3941,58.77,37.0992114,-4.9830713,"España"
"1079","A Estrada",281,288,20479,71.11,42.689166666667,-8.4872222222222,"España"
"1080","Pantón",330,143.24,2542,17.75,42.5088198,-7.64245524387,"España"
"1081","Silleda",524,169,8687,51.4,42.697981,-8.2466373,"España"
"1082","Algete",741,37.88,20611,544.11,40.597777777778,-3.5002777777778,"España"
"1083","Cabrales",98,238.29,1960,8.23,43.27174105,-4.82994899209,"España"
"1084","Castrillón",434,55.34,22376,406.4,43.580556,-5.952222,"España"
"1085","la Roca del Vallès",123,36.77,10650,289.64,41.582652,2.324701,"España"
"1086","Baltanás",780,158.85,1191,7.5,41.938333333333,-4.2463888888889,"España"
"1087","Mungia",165,52.12,17554,0.34,43.3544,-2.84671,"España"
"1088","Blois",107,37.46,46086,1230.27,47.593055555556,1.3272222222222,"Francia"
"1089","Cascante",356,62.93,3864,61.4,41.999166666667,-1.6788888888889,"España"
"1090","Eibar",121,24.78,27522,1110.65,43.1842839,-2.4732748,"España"
"1091","Orreaga/Roncesvalles",944,15.1,22,1.46,43.009286,-1.3199184,"España"
"1092","Puente la Reina/Gares",344,39.7,2840,71.54,42.6717107,-1.8155291,"España"
"1093","Argoños",7,5.5,1748,317.82,43.46,-3.4913888888889,"España"
"1094","Sanlúcar de Barrameda",30,170.28,68684,403.36,36.778888888889,-6.3538888888889,"España"
"1095","Baiona",9,34.47,12122,351.67,42.1199257,-8.8500865,"Francia"
"1096","Villanueva de Gállego",244,76,4720,62.11,41.7682637,-0.826416,"España"
"1097","Jódar",627,149,11667,78.3,37.8406838,-3.3548717,"España"
"1098","Vilobí d'Onyar",148,32.64,3196,0.1,41.888888888889,2.7425,"España"
"1099","Casar de Palomero",513,36.91,1133,30.7,40.2949671,-6.2566105,"España"
"1100","Piedrahíta",1168,28.67,1811,0.06,41.033528,-1.088676,"España"
"1101","Sorihuela",1007,20.5,261,12.73,40.444444444444,-5.6777777777778,"España"
"1102","Foz",5,100.29,9980,99.51,43.5688659,-7.2550407,"España"
"1103","Ordes",291,157.2,12632,0.08,43.076756,-8.407816,"España"
"1104","Orgaz",744,154.48,2602,16.84,39.646666666667,-3.8772222222222,"España"
"1105","Oliana",476,31.84,1810,56.85,42.067136,1.31419,"España"
"1106","Cervera de Pisuerga",1005,323.21,2333,7.22,42.8635509,-4.4972234,"España"
"1107","Torrecampo",575,197.3,1059,5.37,38.475049,-4.6790126,"España"
"1108","Santa Maria d'Oló",542,64.24,1025,15.96,41.8746556,2.0348964,"España"
"1109","Ax-les-Thermes",725,30.26,1267,41.87,42.719444444444,1.8388888888889,"Francia"
"1110","Olette",636,28.95,364,12.57,42.555277777778,2.2697222222222,"Francia"
"1111","Égat",1676,4.47,438,97.99,42.500277777778,2.0161111111111,"Francia"
"1112","Medio Cudeyo",70,26.78,7556,282.15,43.381388888889,-3.7316666666667,"España"
"1113","Jalance",453,94.8,830,8.76,39.192222222222,-1.0766666666667,"España"
"1114","Landete",989,79.34,1234,15.55,39.907777777778,-1.3644444444444,"España"
"1115","Sinarcas",899,102.5,1125,10.98,39.733888888889,-1.2316666666667,"España"
"1116","Talayuelas",991,106.59,878,8.24,39.8493565,-1.2837214,"España"
"1117","Tossa de Mar",6,38.18,5683,148.85,41.720555555556,2.9319444444444,"España"
"1118","Vila-seca",42,21.6,22187,1027.18,41.11098,1.144988,"España"
"1119","San Fernando de Henares",580,39.29,39432,1003.61,40.425555555556,-3.5352777777778,"España"
"1120","Meruelo",60,16.37,2028,123.89,43.456944444444,-3.5738888888889,"España"
"1121","Aroche",410,498.44,3073,6.17,37.9437165,-6.9536542,"España"
"1122","Le Coteau",279,4.89,6872,1405.32,46.027222222222,4.0866666666667,"Francia"
"1123","Lodève",244,23.17,7409,0.32,43.731024,3.323305,"Francia"
"1124","Roanne",285,16.12,34366,2131.89,46.036111111111,4.0680555555556,"Francia"
"1125","Saint-Flour",783,27.14,6435,237.1,45.033611111111,3.0927777777778,"Francia"
"1126","Sévérac-d'Aveyron",40,208.7,4101,0.02,47.546307,-2.078869,"Francia"
"1127","Castelnaudary",187,47.72,11598,243.04,43.318055555556,1.9538888888889,"Francia"
"1128","Villada",795,64.87,934,14.4,42.248888888889,-4.9677777777778,"España"
"1129","Villalón de Campos",843,70,1602,22.89,42.0984494,-5.0347132,"España"
"1130","El Cabaco",958,47.35,221,4.67,40.565833333333,-6.1286111111111,"España"
"1131","Fuente del Maestre",442,179.7,6743,37.52,38.528888888889,-6.45,"España"
"1132","Peñaranda de Bracamonte",902,22.96,6260,272.65,40.9017322,-5.1979686,"España"
"1133","Tamames",898,60.69,781,12.87,40.656944444444,-6.1041666666667,"España"
"1134","Vecinos",897,45.06,264,5.79,40.778218,-5.878261,"España"
"1135","Aubenas",320,14.32,12172,850,44.619722222222,4.3902777777778,"Francia"
"1136","Rivesaltes",29,28.76,8610,299.37,42.768888888889,2.8738888888889,"Francia"
"1137","Zumarraga",356,19.42,9728,500.93,43.083055555556,-2.3166666666667,"España"
"1138","la Canonja",60,7.33,5893,803.96,41.11914,1.18297,"España"
"1139","Saint-Sulpice",112,23.99,9117,380.03,43.774166666667,1.6863888888889,"Francia"
"1140","San Lorenzo de El Escorial",1032,56.4,18369,325.69,40.593611111111,-4.1427777777778,"España"
"1141","Alginet",33,24.1,13380,555.19,39.2651129,-0.4716912,"España"
"1142","Coria del Río",5,61.99,30777,496.48,37.285,-6.0516666666667,"España"
"1143","Carbonne",212,26.59,5712,214.82,43.297222222222,1.2191666666667,"Francia"
"1144","Muret",173,57.84,24945,431.28,43.460277777778,1.3258333333333,"Francia"
"1145","Arenys de Mar",10,6.8,15776,2320,41.581944444444,2.5502777777778,"España"
"1146","Maqueda",501,78,438,5.62,40.064722222222,-4.3716666666667,"España"
"1147","Reocín",79,32.09,8384,261.27,43.361111111111,-4.0863888888889,"España"
"1148","Valls",230,55.3,24359,440.49,41.288333,1.250833,"España"
"1149","Aveiro",11,199.77,78450,368,40.638888888889,-8.6552777777778,"Portugal"
"1150","Ea",4,14.17,823,58.08,43.381111111111,-2.5836111111111,"España"
"1151","Miño",151,32.97,6056,0.18,35.068199,134.153276,"España"
"1152","Ciempozuelos",567,49.64,24592,495.41,40.159166666667,-3.6180555555556,"España"
"1153","Aljaraque",35,33.82,21260,628.62,37.2664912,-7.0246859,"España"
"1154","Almoradí",9,42.72,20803,486.96,38.109722222222,-0.78944444444444,"España"
"1155","Beja",243,1140.21,35854,31.4,38.033333333333,-7.8833333333333,"Portugal"
"1156","Cantillana",34,107.7,10684,99.2,37.6088766,-5.8244449,"España"
"1157","La Palma del Condado",93,61,10761,176.41,37.3841757,-6.5517596,"España"
"1158","La Rambla",358,137.8,7493,54.38,37.6061771,-4.7395567,"España"
"1159","Prado del Rey",440,48.58,5605,115.38,36.787629,-5.5563827,"España"
"1160","San Juan del Puerto",10,45,9300,206.67,37.3142155,-6.8407764,"España"
"1161","Santa Marta",327,119.7,4122,35.12,38.6,-6.616667,"España"
"1162","Setúbal",20,171.9,121185,1126.57,38.524305555556,-8.8926111111111,"Portugal"
"1163","Tomares",78,5.17,25359,4905.03,37.373888888889,-6.045,"España"
"1164","Torrox",120,51,17234,337.92,36.7607455,-3.9523617,"España"
"1165","Santa Olalla",492,72,3251,45.15,40.023611111111,-4.4358333333333,"España"
"1166","Iniesta",769,232.3,4305,18.53,39.444555,-1.7487477,"España"
"1167","Villagarcía del Llano",728,117.27,759,6.47,39.326388888889,-1.8463888888889,"España"
"1168","Coslada",621,12.03,81661,6788.11,40.426111111111,-3.565,"España"
"1169","Roquetes",14,137.23,7973,58.1,40.82063,0.502505,"España"
"1170","Escucha",1072,41.6,852,20.48,40.7940597,-0.8101306,"España"
"1171","Santa Cruz de Mudela",732,134.6,4107,30.51,38.645277777778,-3.4672222222222,"España"
"1172","Malla",580,11,273,24.82,41.888888888889,2.2358333333333,"España"
"1173","Cózar",870,64.99,969,14.91,38.6596569,-3.0725049,"España"
"1174","Paiporta",52,3.9,26088,6689.23,39.427777777778,-0.41833333333333,"España"
"1175","Sarrià de Ter",70,4.2,5170,1230.95,42.018055555556,2.8261111111111,"España"
"1176","Begur",200,20.71,3925,189.52,41.9541918,3.2088349,"España"
"1177","Artesa de Segre",318,176.71,3432,19.42,41.89539,1.045428,"España"
"1178","San Adrián",318,20.72,6292,303.67,42.3325,-1.9333333333333,"España"
"1179","Serón",822,167,2041,12.46,43.322222222222,-0.099444444444444,"España"
"1180","Albarracín",1171,452.72,1025,2.26,40.405312,-1.4440324,"España"
"1181","Cornellà de Llobregat",27,6.99,88592,12674.11,41.355,2.0711111111111,"España"
"1182","Cullera",2,53.8,22145,411.62,39.1659862,-0.2526691,"España"
"1183","Luçay-le-Libre",136,11.85,104,8.78,47.085877,1.904704,"Francia"
"1184","el Morell",99,5.92,3704,625.68,41.192208,1.208658,"España"
"1185","Oeiras",151,45.88,172120,3751.5,38.75,-9.2333333333333,"Portugal"
"1186","Sesimbra",26,194.98,49500,192.67,38.443722222222,-9.0996388888889,"Portugal"
"1187","la Garriga",252,18.8,16514,878.4,41.680388888889,2.2833333333333,"España"
"1188","Vilaller",981,58.76,561,9.55,42.476623,0.717366,"España"
"1189","el Pont de Suert",853,148.14,2220,14.99,42.408249,0.741699,"España"
"1190","El Coronil",117,91.64,4746,51.79,37.0822895,-5.6333811,"España"
"1191","Torres Torres",168,11.8,637,53.98,39.7434693,-0.3578217,"España"
"1192","Alcanar",72,47.1,9418,199.96,40.54301,0.48082,"España"
"1193","Amposta",8,136.2,20738,152.26,40.710555555556,0.58083333333333,"España"
"1194","Quintanilla del Agua y Tordueles",852,35.79,373,10.42,42.040833333333,-3.6519444444444,"España"
"1195","Marco de Canaveses",201,202.02,53450,264.58,41.216666666667,-8.1408333333333,"Portugal"
"1196","San Esteban del Molar",730,25.03,128,5.11,41.937208333333,-5.5517916666667,"España"
"1197","Andorra",1023,468,76177,162.77,42.5,1.5,"Andorra"
"1198","Arnedo",525,85.4,14875,174.18,42.227777777778,-2.1,"España"
"1199","Saint-Pierre-des-Corps",51,11.28,15838,1404.08,47.390833333333,0.72805555555556,"Francia"
"1200","Sallent de Gállego",1305,162.14,1478,9.12,42.771944444444,-0.33277777777778,"España"
"1201","Decazeville",213,13.88,5360,386.17,44.559166666667,2.2555555555556,"Francia"
"1202","Mont-Louis",1600,18.98,152,389.74,42.508333333333,2.12,"Francia"
"1203","Onet-le-Château",595,40.2,11944,0.3,44.356138,2.583684,"Francia"
"1204","Puget-sur-Argens",39,26.9,8097,301,43.455833333333,6.6841666666667,"Francia"
"1205","Toulon",16,42.84,171953,4013.84,43.125,5.9305555555556,"Francia"
"1206","Pont-Saint-Esprit",57,18.49,10336,559,44.256388888889,4.6483333333333,"Francia"
"1207","Seichamps",240,4.3,4809,1.12,48.716459,6.266427,"Francia"
"1208","Palamós",0,13.98,17910,1281.12,41.845833333333,3.1288888888889,"España"
"1209","Abadín",500,196.1,2367,12.07,43.363611111111,-7.475,"España"
"1210","Arteixo",11,95.9,32262,336.41,43.3,-8.5,"España"
"1211","Brión",289,74.9,7837,104.63,42.866666666667,-8.6783333333333,"España"
"1212","Carballo",106,186.09,31349,168.46,43.216666666667,-8.6833333333333,"España"
"1213","Cee",4,57.45,7546,131.35,42.955555555556,-9.19,"España"
"1214","Coaña",97,65.8,3315,50.38,43.5144776,-6.7510082,"España"
"1215","Sanxenxo",52,45.08,17347,384.8,42.3994567,-8.8067881,"España"
"1216","Vimianzo",450,187.27,7057,37.68,43.11,-9.0344444444444,"España"
"1217","Monterroso",504,118,3616,30.64,42.7925,-7.8361111111111,"España"
"1218","Cabezarados",686,80.36,322,4.01,38.845833333333,-4.2969444444444,"España"
"1219","Corral de Calatrava",660,148.77,1123,7.55,38.858611111111,-4.0808333333333,"España"
"1220","Poblete",625,27.82,2626,94.39,38.935833333333,-3.9813888888889,"España"
"1221","Saceruela",585,247.28,559,2.26,38.9434102,-4.6083053,"España"
"1222","Collbató",386,18.07,4466,247.15,41.570833333333,1.8302777777778,"España"
"1223","Laguardia",630,81.08,1494,18.43,42.55,-2.5830555555556,"España"
"1224","Manosque",390,56.73,22333,393.67,43.833333333333,5.7830555555556,"Francia"
"1225","Cornudella de Montsant",533,63.11,941,14.91,41.2657,0.90504,"España"
"1226","Salobreña",95,34.91,12381,354.65,36.746666666667,-3.5869444444444,"España"
"1227","Sant Adrià de Besòs",14,3.87,37097,9585.79,41.4304832,2.2182775,"España"
"1228","Fuente Obejuna",625,591.43,4604,7.78,38.2670779,-5.4196549,"España"
"1229","Bielsa",1026,202.41,457,2.26,42.633611111111,0.21833333333333,"España"
"1230","Arroyo de la Encomienda",690,11.54,20179,1748.61,41.6127872,-4.7917372,"España"
"1231","Frómista",780,46.59,767,16.46,42.267222222222,-4.4066666666667,"España"
"1232","Monzón de Campos",750,45.91,592,12.89,42.116666666667,-4.4944444444444,"España"
"1233","Ayora",596,446.6,5312,11.89,39.059722222222,-1.0558333333333,"España"
"1234","Bonete",892,125,1049,8.39,38.871666666667,-1.3480555555556,"España"
"1235","Bustillo del Páramo",845,71.77,1165,16.23,42.441111111111,-5.7916666666667,"España"
"1236","Caudete",557,141.61,9963,70.36,38.7,-0.98305555555556,"España"
"1237","Covilhã",200,555.6,51797,98,40.28333333,-7.5,"Portugal"
"1238","El Pedernoso",772,56.41,1124,19.93,39.4838505,-2.7444391,"España"
"1239","El Provencio",700,101.15,2437,24.09,39.3769863,-2.5741455,"España"
"1240","Los Alcázares",6,19.82,16138,814.23,37.743611111111,-0.84972222222222,"España"
"1241","Molinicos",851,144,852,5.92,38.4663491,-2.2406294,"España"
"1242","Pepino",454,46,3055,66.41,40.031388888889,-4.8033333333333,"España"
"1243","Pozo Cañada",700,117.16,2797,23.87,38.8048432,-1.7357987,"España"
"1244","Quesa",200,73.2,670,9.15,39.1196086,-0.7402726,"España"
"1245","Socuéllamos",632,374.1,12139,32.45,39.293333333333,-2.7941666666667,"España"
"1246","Villaviciosa de Odón",661,68.05,27835,409.04,40.358333333333,-3.9033333333333,"España"
"1247","Casas-Ibáñez",707,103.22,4538,43.96,39.3080516,-1.47240309631,"España"
"1248","Jorquera",631,67.97,355,5.22,39.175277777778,-1.5211111111111,"España"
"1249","Villafranca del Cid / Vilafranca",1125,93.8,2200,23.45,40.4269332,-0.2576497,"España"
"1250","Benamaurel",723,127.4,2293,18,37.6083532,-2.6972312,"España"
"1251","Cortes de Baza",701,140.56,1869,13.3,37.6544186,-2.7701864,"España"
"1252","Peligros",680,10.14,11394,1123.67,37.230833333333,-3.6286111111111,"España"
"1253","la Font de la Figuera",553,84.34,2038,24.16,38.805555555556,-0.87944444444444,"España"
"1254","Almoguera",659,119.29,1289,10.81,40.298888888889,-2.9811111111111,"España"
"1255","Corpa",860,25.91,713,27.52,40.425555555556,-3.2597222222222,"España"
"1256","El Molar",833,50.3,8938,177.69,40.735,-3.5813888888889,"España"
"1257","Mondéjar",805,48.43,2645,54.61,40.323888888889,-3.1083333333333,"España"
"1258","Pezuela de las Torres",900,41.44,842,20.32,40.419444444444,-3.1786111111111,"España"
"1259","Seseña",598,72.68,25835,355.46,40.105,-3.7022222222222,"España"
"1260","Villalbilla",747,34.6,13878,401.1,40.4321635,-3.3011293,"España"
"1261","Sant Carles de la Ràpita",11,53.69,14789,275.45,40.620301,0.592744,"España"
"1262","Dos Torres",587,129.09,2411,18.68,38.4442061,-4.8957833,"España"
"1263","Robledo",646,111.1,1081,9.73,39.2176173,-4.2811191,"España"
"1264","Arquillos",378,65,1734,26.68,38.1809503,-3.4270554,"España"
"1265","Navas de San Juan",654,175,4517,25.81,38.183649,-3.3137589,"España"
"1266","Calaceite",511,81.33,994,12.22,41.0158195,0.1894133,"España"
"1267","Valdemorillo",815,93.68,12518,133.63,40.502222222222,-4.0658333333333,"España"
"1268","Rafal",25,1.6,4498,2811.25,38.104722222222,-0.84916666666667,"España"
"1269","l'Alfàs del Pi",88,19.26,20482,1063.45,38.579444444444,-0.10194444444444,"España"
"1270","Olivenza / Olivença",269,430.14,11963,27.81,38.685744,-7.100731,"España"
"1271","Munera",929,229.43,3435,14.97,39.0392372,-2.482028,"España"
"1272","Villafranca de los Caballeros",643,107,4896,45.76,39.426111111111,-3.3575,"España"
"1273","Bergara",110,75.97,14637,192.67,43.1175442,-2.4133452,"España"
"1274","Cártama",151,105.1,26259,249.85,36.7112515,-4.6305716,"España"
"1275","Albertville",348,17.54,18899,1077.48,45.675833333333,6.3925,"Francia"
"1276","Berlin",35,891.68,3644826,3891.3,52.516666666667,13.383333333333,"Alemania"
"1277","Chipiona",6,32.92,19123,580.89,36.7357327,-6.4347625,"España"
"1278","Frankfurt am Main",109,248.31,753056,2737,50.113611111111,8.6797222222222,"Alemania"
"1279","Paterna de Rivera",127,14.01,5470,390.44,36.5217688,-5.8671653,"España"
"1280","Moraleda de Zafayona",616,48.15,3153,65.48,37.169722222222,-3.965,"España"
"1281","Quesada",100,328.7,5209,16.43,38.06553,-0.72887,"España"
"1282","Fuente Álamo de Murcia",127,273,16184,0.06,37.7393288,-1.18816901901,"España"
"1283","Alfafara",582,19.78,410,20.73,38.7725,-0.55611111111111,"España"
"1284","Callosa de Segura",16,24.8,19038,767.66,38.1225,-0.87972222222222,"España"
"1285","Quart de Poblet",40,19.6,24760,1263.27,39.483333333333,-0.44277777777778,"España"
"1286","Riudellots de la Selva",98,13.38,2076,155.16,41.895555555556,2.8063888888889,"España"
"1287","Sitges",10,43,29307,681.56,41.233888888889,1.8041666666667,"España"
"1288","Abenójar",612,423.43,1375,3.25,38.879166666667,-4.3577777777778,"España"
"1289","Miguelturra",635,118.37,15368,129.83,38.964722222222,-3.8911111111111,"España"
"1290","Aceuchal",303,63.1,5449,86.35,38.65,-6.4830555555556,"España"
"1291","Guadiana del Caudillo",185,30.05,2485,82.7,38.930277777778,-6.6908333333333,"España"
"1292","Alhama de Almería",520,26,3641,140.04,36.9574546,-2.5667688,"España"
"1293","Canjáyar",618,67,1214,18.12,37.0104452,-2.7406217,"España"
"1294","Fiñana",950,135,1994,14.77,37.1709721,-2.8397107,"España"
"1295","Herrera",254,53.48,6461,120.81,37.361666666667,-4.85,"España"
"1296","Hinojos",70,319.88,3976,12.43,37.2918341,-6.3785638,"España"
